location_id,location_name,latitude,longitude,name,AreaName,RegionName
1,Yio Chu Kang,1.381765,103.844923,kml_19,ANG MO KIO,NORTH-EAST REGION
2,Ang Mo Kio,1.370025,103.849588,kml_19,ANG MO KIO,NORTH-EAST REGION
3,Bishan,1.35092,103.848206,kml_21,BISHAN,CENTRAL REGION
4,Braddell,1.34055,103.847098,kml_35,TOA PAYOH,CENTRAL REGION
5,Toa Payoh,1.332405,103.847436,kml_35,TOA PAYOH,CENTRAL REGION
6,Novena,1.320089,103.843405,kml_15,NOVENA,CENTRAL REGION
7,Newton,1.31383,103.838021,kml_41,NEWTON,CENTRAL REGION
8,Orchard,1.304041,103.831792,kml_42,ORCHARD,CENTRAL REGION
9,Somerset,1.300508,103.838428,kml_42,ORCHARD,CENTRAL REGION
10,Dhoby Ghaut,1.299169,103.845799,kml_40,MUSEUM,CENTRAL REGION
11,City Hall,1.293119,103.852089,kml_37,DOWNTOWN CORE,CENTRAL REGION
12,Raffles Place,1.284001,103.85155,kml_37,DOWNTOWN CORE,CENTRAL REGION
13,Marina Bay,1.276481,103.854598,kml_37,DOWNTOWN CORE,CENTRAL REGION
14,Tanjong Pagar,1.276385,103.846771,kml_37,DOWNTOWN CORE,CENTRAL REGION
15,Outram Park,1.280319,103.839459,kml_43,OUTRAM,CENTRAL REGION
16,Tiong Bahru,1.286555,103.826956,kml_1,BUKIT MERAH,CENTRAL REGION
17,Redhill,1.289674,103.816787,kml_1,BUKIT MERAH,CENTRAL REGION
18,Queenstown,1.294867,103.805902,kml_24,QUEENSTOWN,CENTRAL REGION
19,Commonwealth,1.302439,103.798326,kml_24,QUEENSTOWN,CENTRAL REGION
20,Buona Vista,1.307337,103.790046,kml_24,QUEENSTOWN,CENTRAL REGION
21,Clementi,1.314925,103.765341,kml_7,CLEMENTI,WEST REGION
22,Yishun,1.429666,103.835044,kml_55,YISHUN,NORTH REGION
23,Khatib,1.417423,103.832995,kml_55,YISHUN,NORTH REGION
24,Jurong East,1.333207,103.742308,kml_9,JURONG EAST,WEST REGION
25,Chinese Garden,1.342436,103.732582,kml_9,JURONG EAST,WEST REGION
26,Lakeside,1.344264,103.720797,kml_10,JURONG WEST,WEST REGION
27,Boon Lay,1.33862,103.705817,kml_10,JURONG WEST,WEST REGION
28,Bukit Batok,1.349069,103.749596,kml_23,BUKIT BATOK,WEST REGION
29,Bukit Gombak,1.359043,103.751863,kml_23,BUKIT BATOK,WEST REGION
30,Choa Chu Kang,1.385417,103.744316,kml_6,CHOA CHU KANG,WEST REGION
31,Bugis,1.300747,103.855873,kml_37,DOWNTOWN CORE,CENTRAL REGION
32,Lavender,1.307577,103.863155,kml_11,KALLANG,CENTRAL REGION
33,Kallang,1.311532,103.871372,kml_11,KALLANG,CENTRAL REGION
34,Aljunied,1.316474,103.882762,kml_50,GEYLANG,CENTRAL REGION
35,Paya Lebar,1.318214,103.893133,kml_50,GEYLANG,CENTRAL REGION
36,Eunos,1.319809,103.902888,kml_50,GEYLANG,CENTRAL REGION
37,Kembangan,1.320998,103.913433,kml_20,BEDOK,EAST REGION
38,Bedok,1.324043,103.930205,kml_20,BEDOK,EAST REGION
39,Tanah Merah,1.327309,103.946479,kml_20,BEDOK,EAST REGION
40,Simei,1.343237,103.953343,kml_32,TAMPINES,EAST REGION
41,Tampines,1.354467,103.943325,kml_32,TAMPINES,EAST REGION
42,Pasir Ris,1.373234,103.949343,kml_16,PASIR RIS,EAST REGION
43,Sembawang,1.449133,103.82006,kml_26,SEMBAWANG,NORTH REGION
44,Admiralty,1.436984,103.786406,kml_54,WOODLANDS,NORTH REGION
45,Woodlands,1.436984,103.786406,kml_54,WOODLANDS,NORTH REGION
46,Marsiling,1.432579,103.77415,kml_54,WOODLANDS,NORTH REGION
47,Kranji,1.425302,103.762049,kml_31,SUNGEI KADUT,NORTH REGION
48,Yew Tee,1.397383,103.747523,kml_6,CHOA CHU KANG,WEST REGION
49,Choa Chu Kang,1.385417,103.744316,kml_6,CHOA CHU KANG,WEST REGION
50,South View,1.380299,103.745286,kml_6,CHOA CHU KANG,WEST REGION
51,Keat Hong,1.378604,103.749058,kml_6,CHOA CHU KANG,WEST REGION
52,Teck Whye,1.376738,103.753665,kml_6,CHOA CHU KANG,WEST REGION
53,Phoenix,1.378798,103.758021,kml_6,CHOA CHU KANG,WEST REGION
54,Bukit Panjang,1.37834,103.762452,kml_2,BUKIT PANJANG,WEST REGION
55,Petir,1.377828,103.76655,kml_2,BUKIT PANJANG,WEST REGION
56,Pending,1.376223,103.771277,kml_2,BUKIT PANJANG,WEST REGION
57,Bangkit,1.380281,103.772576,kml_2,BUKIT PANJANG,WEST REGION
58,Fajar,1.384502,103.770862,kml_2,BUKIT PANJANG,WEST REGION
59,Segar,1.387713,103.769599,kml_2,BUKIT PANJANG,WEST REGION
60,Jelapang,1.386703,103.764547,kml_2,BUKIT PANJANG,WEST REGION
61,Senja,1.382852,103.762312,kml_2,BUKIT PANJANG,WEST REGION
62,Ten Mile Junction,1.3799563,103.7579365,kml_6,CHOA CHU KANG,WEST REGION
63,Expo,1.334479,103.961459,kml_32,TAMPINES,EAST REGION
64,Dover,1.311414,103.778596,kml_24,QUEENSTOWN,CENTRAL REGION
65,Changi Airport,1.357622,103.988487,kml_5,CHANGI,EAST REGION
66,Pioneer,1.337645,103.69742,kml_10,JURONG WEST,WEST REGION
67,Joo Koon,1.327826,103.678318,kml_17,PIONEER,WEST REGION
101,Punggol,1.405191,103.902367,kml_18,PUNGGOL,NORTH-EAST REGION
102,Sengkang,1.391682,103.895475,kml_27,SENGKANG,NORTH-EAST REGION
103,Buangkok,1.382991,103.893347,kml_27,SENGKANG,NORTH-EAST REGION
104,Hougang,1.371406,103.892533,kml_8,HOUGANG,NORTH-EAST REGION
105,Kovan,1.360207,103.885163,kml_8,HOUGANG,NORTH-EAST REGION
106,Serangoon,1.349862,103.873635,kml_28,SERANGOON,NORTH-EAST REGION
107,Woodleigh,1.339202,103.870727,kml_35,TOA PAYOH,CENTRAL REGION
108,Potong Pasir,1.331316,103.868779,kml_35,TOA PAYOH,CENTRAL REGION
109,Boon Keng,1.320091,103.861655,kml_11,KALLANG,CENTRAL REGION
110,Farrer Park,1.312679,103.854872,kml_11,KALLANG,CENTRAL REGION
111,Little India,1.306691,103.849396,kml_45,ROCHOR,CENTRAL REGION
112,Dhoby Ghaut,1.299169,103.845799,kml_40,MUSEUM,CENTRAL REGION
113,Clarke Quay,1.288949,103.847521,kml_46,SINGAPORE RIVER,CENTRAL REGION
114,Chinatown,1.284566,103.843626,kml_43,OUTRAM,CENTRAL REGION
115,Outram Park,1.280319,103.839459,kml_43,OUTRAM,CENTRAL REGION
116,Harbour Front,1.265453,103.820514,kml_1,BUKIT MERAH,CENTRAL REGION
117,Compassvale,1.394615,103.900443,kml_27,SENGKANG,NORTH-EAST REGION
118,Rumbia,1.391553,103.905947,kml_27,SENGKANG,NORTH-EAST REGION
119,Bakau,1.38804,103.905412,kml_27,SENGKANG,NORTH-EAST REGION
120,Kangkar,1.383957,103.90216,kml_27,SENGKANG,NORTH-EAST REGION
121,Ranggung,1.384116,103.897386,kml_27,SENGKANG,NORTH-EAST REGION
122,Cheng Lim,1.396332,103.89379,kml_27,SENGKANG,NORTH-EAST REGION
123,Farmway,1.397178,103.889168,kml_27,SENGKANG,NORTH-EAST REGION
124,Kupang,1.398271,103.881283,kml_27,SENGKANG,NORTH-EAST REGION
125,Thanggam,1.397378,103.87561,kml_27,SENGKANG,NORTH-EAST REGION
126,Fernvale,1.392033,103.876256,kml_27,SENGKANG,NORTH-EAST REGION
127,Layar,1.392141,103.880022,kml_27,SENGKANG,NORTH-EAST REGION
128,Tongkang,1.389519,103.885829,kml_27,SENGKANG,NORTH-EAST REGION
129,Renjong,1.386827,103.890541,kml_27,SENGKANG,NORTH-EAST REGION
130,Cove,1.399534,103.905792,kml_18,PUNGGOL,NORTH-EAST REGION
131,Meridian,1.397002,103.908884,kml_18,PUNGGOL,NORTH-EAST REGION
132,Coral Edge,1.39392,103.912633,kml_18,PUNGGOL,NORTH-EAST REGION
133,Riviera,1.39454,103.916056,kml_18,PUNGGOL,NORTH-EAST REGION
134,Kadaloor,1.399633,103.916536,kml_18,PUNGGOL,NORTH-EAST REGION
135,Oasis,1.402304,103.912736,kml_18,PUNGGOL,NORTH-EAST REGION
136,Damai,1.405293,103.908606,kml_18,PUNGGOL,NORTH-EAST REGION
137,Sam Kee,1.409808,103.90492,kml_18,PUNGGOL,NORTH-EAST REGION
138,Teck Lee,1.412783,103.906565,kml_18,PUNGGOL,NORTH-EAST REGION
139,Punggol Point,1.416932,103.90668,kml_18,PUNGGOL,NORTH-EAST REGION
140,Samudera,1.415955,103.902185,kml_18,PUNGGOL,NORTH-EAST REGION
141,Nibong,1.411865,103.900321,kml_18,PUNGGOL,NORTH-EAST REGION
142,Sumang,1.408501,103.898605,kml_18,PUNGGOL,NORTH-EAST REGION
143,Soo Teck,1.405436,103.897287,kml_18,PUNGGOL,NORTH-EAST REGION
201,Bartley,1.342923,103.87966,kml_28,SERANGOON,NORTH-EAST REGION
202,Serangoon,1.349862,103.873635,kml_28,SERANGOON,NORTH-EAST REGION
203,Lorong Chuan,1.35153,103.864957,kml_28,SERANGOON,NORTH-EAST REGION
204,Bishan,1.35092,103.848206,kml_21,BISHAN,CENTRAL REGION
205,Marymount,1.349089,103.839116,kml_21,BISHAN,CENTRAL REGION
206,Tai Seng,1.33594,103.887706,kml_35,TOA PAYOH,CENTRAL REGION
207,MacPherson,1.326769,103.889901,kml_50,GEYLANG,CENTRAL REGION
208,Paya Lebar,1.318214,103.893133,kml_50,GEYLANG,CENTRAL REGION
209,Dakota,1.308474,103.888825,kml_50,GEYLANG,CENTRAL REGION
210,Mountbatten,1.306106,103.883175,kml_50,GEYLANG,CENTRAL REGION
211,Stadium,1.302847,103.875417,kml_11,KALLANG,CENTRAL REGION
212,Nicoll Highway,1.300292,103.863449,kml_37,DOWNTOWN CORE,CENTRAL REGION
213,Promenade,1.294063,103.860156,kml_37,DOWNTOWN CORE,CENTRAL REGION
214,Esplanade,1.293995,103.855396,kml_37,DOWNTOWN CORE,CENTRAL REGION
215,Bras Basah,1.296978,103.850715,kml_40,MUSEUM,CENTRAL REGION
216,Caldecott,1.337649,103.839627,kml_35,TOA PAYOH,CENTRAL REGION
217,Botanic Gardens,1.322387,103.814905,kml_33,TANGLIN,CENTRAL REGION
218,Farrer Road,1.317606,103.807711,kml_3,BUKIT TIMAH,CENTRAL REGION
219,Holland Village,1.311189,103.796119,kml_3,BUKIT TIMAH,CENTRAL REGION
220,Buona Vista,1.307337,103.790046,kml_24,QUEENSTOWN,CENTRAL REGION
221,one-north,1.299854,103.787584,kml_24,QUEENSTOWN,CENTRAL REGION
222,Kent Ridge,1.293629,103.784441,kml_24,QUEENSTOWN,CENTRAL REGION
223,Haw Par Villa,1.283149,103.781991,kml_24,QUEENSTOWN,CENTRAL REGION
224,Pasir Panjang,1.276111,103.791893,kml_24,QUEENSTOWN,CENTRAL REGION
225,Labrador Park,1.27218,103.802557,kml_1,BUKIT MERAH,CENTRAL REGION
226,Telok Blangah,1.270769,103.809878,kml_1,BUKIT MERAH,CENTRAL REGION
227,Harbour Front,1.265453,103.820514,kml_1,BUKIT MERAH,CENTRAL REGION
228,Marina Bay,1.276481,103.854598,kml_37,DOWNTOWN CORE,CENTRAL REGION
229,Bayfront,1.281371,103.858998,kml_37,DOWNTOWN CORE,CENTRAL REGION
1001,Hotel Grand Pacific,1.2968483,103.85254,kml_45,ROCHOR,CENTRAL REGION
1002,St. Joseph's Ch,1.2977097,103.853226,kml_45,ROCHOR,CENTRAL REGION
1003,Bras Basah Cplx,1.2969896,103.85302,kml_37,DOWNTOWN CORE,CENTRAL REGION
1004,Opp Natl Lib,1.2966729,103.854416,kml_37,DOWNTOWN CORE,CENTRAL REGION
1005,Bugis Cube,1.2982079,103.85549,kml_37,DOWNTOWN CORE,CENTRAL REGION
1006,Bugis Stn Exit B,1.3007568,103.85611,kml_37,DOWNTOWN CORE,CENTRAL REGION
1007,Queen St Ter,1.3035858,103.85651,kml_45,ROCHOR,CENTRAL REGION
1008,Queen St Ter,1.3035858,103.85651,kml_45,ROCHOR,CENTRAL REGION
1009,Opp Bugis Stn Exit C,1.3000921,103.8552,kml_45,ROCHOR,CENTRAL REGION
1010,Bugis Stn Exit A,1.301173,103.85612,kml_37,DOWNTOWN CORE,CENTRAL REGION
1011,Aft Bugis Stn Exit C,1.299604,103.85513,kml_37,DOWNTOWN CORE,CENTRAL REGION
1012,Stamford Pr Sch,1.3039382,103.85868,kml_45,ROCHOR,CENTRAL REGION
1013,Opp Stamford Pr Sch,1.3035027,103.85864,kml_45,ROCHOR,CENTRAL REGION
1014,Parkview Sq,1.3003305,103.85716,kml_37,DOWNTOWN CORE,CENTRAL REGION
1015,Opp Blk 461,1.305518,103.86054,kml_11,KALLANG,CENTRAL REGION
1016,Blk 461,1.305266,103.86072,kml_11,KALLANG,CENTRAL REGION
1017,Bef Sultan Mque,1.3033755,103.859634,kml_45,ROCHOR,CENTRAL REGION
1018,Opp Textile Ctr,1.30325,103.861084,kml_45,ROCHOR,CENTRAL REGION
1019,Sultan Plaza,1.3029124,103.86162,kml_11,KALLANG,CENTRAL REGION
1020,Lavender Stn Exit B,1.3070916,103.8622,kml_11,KALLANG,CENTRAL REGION
1021,Lavender Stn Exit A/ICA,1.3075743,103.86326,kml_11,KALLANG,CENTRAL REGION
1022,Blk 8,1.3049567,103.86363,kml_11,KALLANG,CENTRAL REGION
1023,Bef Crawford Bridge,1.307746,103.864265,kml_11,KALLANG,CENTRAL REGION
1024,Southbank,1.3064755,103.864525,kml_11,KALLANG,CENTRAL REGION
1025,Opp Blk 4,1.3056864,103.86544,kml_11,KALLANG,CENTRAL REGION
1026,Opp St. John HQ,1.3021133,103.86295,kml_11,KALLANG,CENTRAL REGION
1027,St. John HQ,1.30202,103.863266,kml_37,DOWNTOWN CORE,CENTRAL REGION
1028,Opp Golden Mile Cplx,1.3033844,103.86484,kml_11,KALLANG,CENTRAL REGION
1029,Golden Mile Cplx,1.3032136,103.86501,kml_37,DOWNTOWN CORE,CENTRAL REGION
1030,Opp The Gateway,1.2991983,103.85864,kml_37,DOWNTOWN CORE,CENTRAL REGION
1031,The Gateway,1.2990749,103.85891,kml_37,DOWNTOWN CORE,CENTRAL REGION
1032,Opp Plaza Parkroyal,1.300883,103.860664,kml_45,ROCHOR,CENTRAL REGION
1033,Plaza Parkroyal,1.3004167,103.86044,kml_37,DOWNTOWN CORE,CENTRAL REGION
1034,Bugis Stn Exit D,1.2988646,103.857346,kml_37,DOWNTOWN CORE,CENTRAL REGION
1035,Landmark Village Hotel,1.3016874,103.85753,kml_45,ROCHOR,CENTRAL REGION
1036,Aft Raffles Hotel,1.2952726,103.85534,kml_37,DOWNTOWN CORE,CENTRAL REGION
1037,Esplanade Stn Exit F,1.294287,103.85504,kml_37,DOWNTOWN CORE,CENTRAL REGION
1038,Opp Shaw Twrs,1.2969589,103.85656,kml_37,DOWNTOWN CORE,CENTRAL REGION
1039,Shaw Twrs,1.2969598,103.856865,kml_37,DOWNTOWN CORE,CENTRAL REGION
1040,Aft Beach Rd,1.2969362,103.855804,kml_37,DOWNTOWN CORE,CENTRAL REGION
1041,Bef Beach Rd,1.2973875,103.855576,kml_37,DOWNTOWN CORE,CENTRAL REGION
1043,Hockey Stadium,1.3947825,103.88633,kml_27,SENGKANG,NORTH-EAST REGION
1044,Opp S'pore Cricket Club,1.2887901,103.852936,kml_37,DOWNTOWN CORE,CENTRAL REGION
1046,Raffles Hotel,1.2945209,103.85402,kml_37,DOWNTOWN CORE,CENTRAL REGION
1047,The Float @ Marina Bay,1.2895031,103.85903,kml_37,DOWNTOWN CORE,CENTRAL REGION
1048,The Esplanade,1.2899638,103.85641,kml_37,DOWNTOWN CORE,CENTRAL REGION
1049,Promenade Stn/Pan Pacific,1.2915269,103.85921,kml_37,DOWNTOWN CORE,CENTRAL REGION
1050,Promenade Stn/Pan Pacific,1.2915269,103.85921,kml_37,DOWNTOWN CORE,CENTRAL REGION
1051,Promenade Stn/Pan Pacific,1.2915269,103.85921,kml_37,DOWNTOWN CORE,CENTRAL REGION
1052,Marina Ctr Ter,1.2914727,103.86149,kml_37,DOWNTOWN CORE,CENTRAL REGION
1053,Marina Ctr Ter,1.2914727,103.86149,kml_37,DOWNTOWN CORE,CENTRAL REGION
1054,AFT S'PORE FLYER,1.2893848,103.86183,kml_37,DOWNTOWN CORE,CENTRAL REGION
1055,Esplanade Bridge,1.2909559,103.85454,kml_37,DOWNTOWN CORE,CENTRAL REGION
1056,Opp War Memorial Pk,1.2918441,103.85535,kml_37,DOWNTOWN CORE,CENTRAL REGION
1057,Suntec Twr Two,1.2957658,103.85934,kml_37,DOWNTOWN CORE,CENTRAL REGION
1058,Suntec Twr Three,1.2956046,103.85956,kml_37,DOWNTOWN CORE,CENTRAL REGION
1059,Suntec Convention Ctr,1.2931777,103.85785,kml_37,DOWNTOWN CORE,CENTRAL REGION
1060,Opp Suntec Convention Ctr,1.2936081,103.858406,kml_37,DOWNTOWN CORE,CENTRAL REGION
1061,Promenade Stn,1.2926855,103.86093,kml_37,DOWNTOWN CORE,CENTRAL REGION
1062,Promenade Stn Exit B,1.2933384,103.86071,kml_37,DOWNTOWN CORE,CENTRAL REGION
1063,Opp The Ritz-Carlton,1.2907,103.86092,kml_37,DOWNTOWN CORE,CENTRAL REGION
1065,Supreme Ct,1.2894745,103.85098,kml_37,DOWNTOWN CORE,CENTRAL REGION
1067,OUE Bayfront,1.284245,103.85311,kml_37,DOWNTOWN CORE,CENTRAL REGION
1068,Prudential Twr,1.2825552,103.84999,kml_37,DOWNTOWN CORE,CENTRAL REGION
1069,Raffles Pl Stn Exit F,1.2820749,103.85086,kml_37,DOWNTOWN CORE,CENTRAL REGION
1070,Telok Ayer Stn Exit A,1.2817951,103.84893,kml_43,OUTRAM,CENTRAL REGION
1071,One Raffles Quay,1.281111,103.85146,kml_37,DOWNTOWN CORE,CENTRAL REGION
1074,Aft Capital Twr,1.277826,103.8481,kml_37,DOWNTOWN CORE,CENTRAL REGION
1075,OPP SO SOFITEL S'PORE,1.2799062,103.8494,kml_37,DOWNTOWN CORE,CENTRAL REGION
1076,UIC Bldg,1.2780701,103.84956,kml_37,DOWNTOWN CORE,CENTRAL REGION
1077,Opp GB Bldg,1.2789212,103.84776,kml_37,DOWNTOWN CORE,CENTRAL REGION
1079,Opp AXA Twr,1.2755222,103.847946,kml_37,DOWNTOWN CORE,CENTRAL REGION
1080,Opp MAS Bldg,1.2740788,103.84687,kml_37,DOWNTOWN CORE,CENTRAL REGION
1082,Hub Synergy Pt,1.2739784,103.844894,kml_37,DOWNTOWN CORE,CENTRAL REGION
1083,Tanjong Pagar Stn Exit C,1.2757034,103.84632,kml_37,DOWNTOWN CORE,CENTRAL REGION
1084,Shenton Way Ter,1.2746422,103.847565,kml_37,DOWNTOWN CORE,CENTRAL REGION
1085,Shenton Way Ter,1.2746422,103.847565,kml_37,DOWNTOWN CORE,CENTRAL REGION
1090,Bef Marina Gdns Dr,1.276633,103.86077,kml_39,MARINA SOUTH,CENTRAL REGION
1091,Aft Marina Gdns Dr,1.2749852,103.8595,kml_47,STRAITS VIEW,CENTRAL REGION
1092,Bef Gdns by the Bay,1.2795978,103.864334,kml_39,MARINA SOUTH,CENTRAL REGION
1093,Aft Gdns by the Bay,1.279656,103.86478,kml_39,MARINA SOUTH,CENTRAL REGION
1094,Soon Lee Bus Pk,1.3304821,103.6983,kml_10,JURONG WEST,WEST REGION
1095,Marina Barrage,1.2796078,103.86987,kml_39,MARINA SOUTH,CENTRAL REGION
1096,Gdns by the Bay,1.2806648,103.86627,kml_39,MARINA SOUTH,CENTRAL REGION
1103,Capitol Bldg,1.2939545,103.851395,kml_37,DOWNTOWN CORE,CENTRAL REGION
1104,SMU,1.2961855,103.84958,kml_40,MUSEUM,CENTRAL REGION
1105,Armenian Ch,1.2930982,103.84966,kml_40,MUSEUM,CENTRAL REGION
1106,Stamford Ct,1.2941164,103.850204,kml_40,MUSEUM,CENTRAL REGION
1107,Grand Pk City Hall,1.2927613,103.84984,kml_37,DOWNTOWN CORE,CENTRAL REGION
1108,Cath Of The Good Shepherd,1.2953378,103.85114,kml_40,MUSEUM,CENTRAL REGION
1109,Aft Chijmes,1.2948948,103.85108,kml_37,DOWNTOWN CORE,CENTRAL REGION
1110,City Hall Stn Exit B,1.2925,103.851456,kml_37,DOWNTOWN CORE,CENTRAL REGION
1111,Aft City Hall Stn Exit B,1.2920822,103.85126,kml_37,DOWNTOWN CORE,CENTRAL REGION
1112,AFT BRAS BASAH STN EXIT A,1.2964791,103.85147,kml_40,MUSEUM,CENTRAL REGION
1113,Clarke Quay,1.2904361,103.84712,kml_46,SINGAPORE RIVER,CENTRAL REGION
1114,Opp Clarke Quay,1.2909681,103.84687,kml_40,MUSEUM,CENTRAL REGION
1116,Opp Clarke Quay,1.2909681,103.84687,kml_40,MUSEUM,CENTRAL REGION
1117,Old Hill St Police Stn,1.2908448,103.84858,kml_40,MUSEUM,CENTRAL REGION
1118,High St Ctr,1.2904483,103.848755,kml_37,DOWNTOWN CORE,CENTRAL REGION
1119,Clarke Quay Stn Exit E,1.2889897,103.84709,kml_46,SINGAPORE RIVER,CENTRAL REGION
1120,Opp Clarke Quay Stn,1.2888272,103.847496,kml_46,SINGAPORE RIVER,CENTRAL REGION
1121,Opp The Treasury,1.2904304,103.850266,kml_37,DOWNTOWN CORE,CENTRAL REGION
1122,Opp High St Ctr,1.2897383,103.848885,kml_37,DOWNTOWN CORE,CENTRAL REGION
1123,Aft River Valley Rd,1.2946458,103.84392,kml_40,MUSEUM,CENTRAL REGION
1124,UE Sq,1.29214,103.84303,kml_46,SINGAPORE RIVER,CENTRAL REGION
1125,Opp UE Sq,1.2919706,103.843285,kml_46,SINGAPORE RIVER,CENTRAL REGION
1126,BEF FORT CANNING STN,1.2918394,103.84504,kml_46,SINGAPORE RIVER,CENTRAL REGION
1127,FORT CANNING STN EXIT B,1.292211,103.845,kml_40,MUSEUM,CENTRAL REGION
1129,Bef Pearl'S Hill Terr,1.2815459,103.84087,kml_43,OUTRAM,CENTRAL REGION
1130,Chinatown Stn Exit C,1.2840698,103.843,kml_43,OUTRAM,CENTRAL REGION
1131,Aft Duxton Plain Pk,1.2811838,103.84105,kml_43,OUTRAM,CENTRAL REGION
1132,Aft Chinatown Stn Exit D,1.2857109,103.844376,kml_43,OUTRAM,CENTRAL REGION
1133,Opp Hong Lim Pk,1.2869292,103.845406,kml_46,SINGAPORE RIVER,CENTRAL REGION
1134,Boat Quay,1.2871228,103.8482,kml_46,SINGAPORE RIVER,CENTRAL REGION
1135,Hong Lim Pk,1.2867641,103.84575,kml_46,SINGAPORE RIVER,CENTRAL REGION
1136,Opp One Upp Pickering,1.2860117,103.846344,kml_46,SINGAPORE RIVER,CENTRAL REGION
1137,Opp Hong Lim Cplx,1.2840731,103.84534,kml_43,OUTRAM,CENTRAL REGION
1138,Opp Sri Mariamman Tp,1.2820914,103.84528,kml_43,OUTRAM,CENTRAL REGION
1139,Opp Hong Lim Cplx,1.2845145,103.84666,kml_43,OUTRAM,CENTRAL REGION
1140,Opp Blk 333,1.2807199,103.84228,kml_43,OUTRAM,CENTRAL REGION
1141,Aft Kreta Ayer Rd,1.2797945,103.84263,kml_43,OUTRAM,CENTRAL REGION
1142,Maxwell Rd FC,1.2809775,103.8446,kml_37,DOWNTOWN CORE,CENTRAL REGION
1143,Opp Fairfield Meth Ch,1.2797533,103.84382,kml_43,OUTRAM,CENTRAL REGION
1144,OCBC Ctr,1.284437,103.84911,kml_37,DOWNTOWN CORE,CENTRAL REGION
1145,Tg Pagar Plaza,1.2751917,103.843094,kml_43,OUTRAM,CENTRAL REGION
1146,The Amara,1.2747067,103.843185,kml_37,DOWNTOWN CORE,CENTRAL REGION
1147,Aft Craig Rd,1.2777747,103.84346,kml_43,OUTRAM,CENTRAL REGION
1148,Bef Craig Rd,1.2776941,103.843704,kml_43,OUTRAM,CENTRAL REGION
1149,Opp Maritime Hse,1.2755347,103.841125,kml_43,OUTRAM,CENTRAL REGION
1150,Maritime Hse,1.2767686,103.84059,kml_1,BUKIT MERAH,CENTRAL REGION
1151,Opp Southpoint,1.2732114,103.84187,kml_37,DOWNTOWN CORE,CENTRAL REGION
1152,Blk 16,1.2734605,103.84035,kml_1,BUKIT MERAH,CENTRAL REGION
1153,Bef Cantonment Rd,1.2727239,103.84141,kml_1,BUKIT MERAH,CENTRAL REGION
1154,Opp Customs Port Br HQ,1.2723842,103.84094,kml_1,BUKIT MERAH,CENTRAL REGION
1155,Opp Fuji Xerox Twrs,1.2732186,103.84307,kml_37,DOWNTOWN CORE,CENTRAL REGION
1156,Opp Outram Pk Stn,1.28166,103.83801,kml_1,BUKIT MERAH,CENTRAL REGION
1158,Opp Outram Pk Stn,1.28166,103.83801,kml_1,BUKIT MERAH,CENTRAL REGION
1159,Outram Pk Stn,1.2817705,103.83839,kml_43,OUTRAM,CENTRAL REGION
1160,BEF OUTRAM FLYOVER,1.2847486,103.835175,kml_43,OUTRAM,CENTRAL REGION
1161,Blk 55,1.2847598,103.83405,kml_1,BUKIT MERAH,CENTRAL REGION
1162,Aft Furama RiverFront,1.2862315,103.83496,kml_43,OUTRAM,CENTRAL REGION
1163,Blk 2B,1.2868586,103.8336,kml_1,BUKIT MERAH,CENTRAL REGION
1164,Grand Copthorne Hotel,1.2907816,103.83441,kml_46,SINGAPORE RIVER,CENTRAL REGION
1165,The Boys' Brigade HQ,1.2915248,103.83223,kml_1,BUKIT MERAH,CENTRAL REGION
1166,Holiday Inn Atrium,1.289633,103.83381,kml_1,BUKIT MERAH,CENTRAL REGION
1167,Opp Holiday Inn Atrium,1.2898405,103.834114,kml_1,BUKIT MERAH,CENTRAL REGION
1168,Hotel Miramar,1.2887098,103.83737,kml_46,SINGAPORE RIVER,CENTRAL REGION
1169,Opp Hotel Miramar,1.2890939,103.836876,kml_46,SINGAPORE RIVER,CENTRAL REGION
1170,Blk 2,1.2890171,103.83994,kml_43,OUTRAM,CENTRAL REGION
1171,River Pl Condo,1.2893708,103.83999,kml_46,SINGAPORE RIVER,CENTRAL REGION
1172,Opp State Ct,1.2861019,103.84254,kml_43,OUTRAM,CENTRAL REGION
1173,Ctrl Sq,1.2877914,103.84329,kml_46,SINGAPORE RIVER,CENTRAL REGION
1174,Peace Ctr,1.300997,103.84981,kml_45,ROCHOR,CENTRAL REGION
1175,Selegie Ctr,1.3032452,103.84996,kml_45,ROCHOR,CENTRAL REGION
1176,Tekka Ctr,1.3057208,103.851204,kml_45,ROCHOR,CENTRAL REGION
1177,Broadway Hotel,1.3087937,103.85317,kml_45,ROCHOR,CENTRAL REGION
1178,Aft Farrer Pk Stn Exit G,1.3131375,103.85635,kml_11,KALLANG,CENTRAL REGION
1179,Sri Vadapathira K Tp,1.314966,103.85782,kml_11,KALLANG,CENTRAL REGION
1180,Bef Tai Hoe Hotel,1.3096589,103.85737,kml_11,KALLANG,CENTRAL REGION
1181,Bef S'Goon Rd,1.3155714,103.85901,kml_11,KALLANG,CENTRAL REGION
1182,Aft Kempas Rd,1.315368,103.85947,kml_11,KALLANG,CENTRAL REGION
1183,Aft Allenby Rd,1.3103883,103.8587,kml_11,KALLANG,CENTRAL REGION
1184,Hoa Nam Bldg,1.3128448,103.85989,kml_11,KALLANG,CENTRAL REGION
1185,Aft King George's Ave,1.30825,103.85891,kml_11,KALLANG,CENTRAL REGION
1186,ARC 380,1.3135183,103.86054,kml_11,KALLANG,CENTRAL REGION
1187,OPP ARC 380,1.3136826,103.86072,kml_11,KALLANG,CENTRAL REGION
1188,Bef Kallang Bahru,1.3116764,103.86189,kml_11,KALLANG,CENTRAL REGION
1189,Aft Kallang Bahru,1.311408,103.86238,kml_11,KALLANG,CENTRAL REGION
1190,Aft Kallang Rd,1.3095075,103.8635,kml_11,KALLANG,CENTRAL REGION
1191,Aperia/Bef Kallang Rd,1.3101734,103.86338,kml_11,KALLANG,CENTRAL REGION
1192,Opp Veerasamy Rd,1.3065302,103.85616,kml_45,ROCHOR,CENTRAL REGION
1193,IBIS S'PORE ON BENCOOLEN,1.3014522,103.85248,kml_45,ROCHOR,CENTRAL REGION
1194,OPP NAFA CAMPUS 3,1.3009583,103.85211,kml_45,ROCHOR,CENTRAL REGION
1195,JLN BESAR STN EXIT A,1.304319,103.85502,kml_45,ROCHOR,CENTRAL REGION
1196,Rochor Stn,1.3036565,103.85257,kml_45,ROCHOR,CENTRAL REGION
1197,Opp Rochor Stn,1.304613,103.852,kml_45,ROCHOR,CENTRAL REGION
1198,Fu Lu Shou Cplx,1.3017198,103.854614,kml_45,ROCHOR,CENTRAL REGION
1199,Bef Waterloo St,1.2994545,103.85268,kml_45,ROCHOR,CENTRAL REGION
1200,Aft Waterloo St,1.2994953,103.85301,kml_45,ROCHOR,CENTRAL REGION
1201,SUNSHINE PLAZA,1.3006345,103.85114,kml_45,ROCHOR,CENTRAL REGION
1202,Ch of Our Lady of Lourdes,1.3032061,103.8555,kml_45,ROCHOR,CENTRAL REGION
1203,Opp Haw Par Glass Twr,1.2970699,103.84361,kml_40,MUSEUM,CENTRAL REGION
1204,Aft Haw Par Glass Twr,1.2962463,103.84407,kml_40,MUSEUM,CENTRAL REGION
1205,Dhoby Ghaut Stn Exit B,1.2983116,103.84526,kml_40,MUSEUM,CENTRAL REGION
1206,YMCA,1.2981101,103.84781,kml_40,MUSEUM,CENTRAL REGION
1207,Dhoby Ghaut Stn,1.29931,103.84529,kml_40,MUSEUM,CENTRAL REGION
1208,BENCOOLEN STN EXIT B,1.2982138,103.84936,kml_40,MUSEUM,CENTRAL REGION
1209,Sch of the Arts,1.2992145,103.849106,kml_40,MUSEUM,CENTRAL REGION
1210,Winsland Hse,1.2998693,103.840935,kml_42,ORCHARD,CENTRAL REGION
1211,Somerset Stn,1.3002757,103.838776,kml_42,ORCHARD,CENTRAL REGION
1212,Concorde Hotel S'pore,1.3004786,103.84185,kml_42,ORCHARD,CENTRAL REGION
1213,Orchard Plaza,1.3007396,103.841,kml_42,ORCHARD,CENTRAL REGION
1214,Opp Somerset Stn,1.3015426,103.838524,kml_42,ORCHARD,CENTRAL REGION
1215,Opp Ngee Ann City,1.3021133,103.83432,kml_42,ORCHARD,CENTRAL REGION
1216,Natl Youth Council,1.3004426,103.836235,kml_42,ORCHARD,CENTRAL REGION
1217,Bef Orchard Stn Exit B,1.3025284,103.8324,kml_44,RIVER VALLEY,CENTRAL REGION
1218,Opp Orchard Stn/ION,1.3032373,103.83254,kml_42,ORCHARD,CENTRAL REGION
1219,Opp Mandarin Orchard,1.30234,103.83701,kml_42,ORCHARD,CENTRAL REGION
1220,Orchard Stn/Lucky Plaza,1.3038669,103.83413,kml_42,ORCHARD,CENTRAL REGION
1221,Opp Four Seasons Hotel,1.3045375,103.82915,kml_44,RIVER VALLEY,CENTRAL REGION
1222,Bef Tomlinson Rd,1.3039738,103.826996,kml_44,RIVER VALLEY,CENTRAL REGION
1223,Grange Residences,1.30392,103.82334,kml_33,TANGLIN,CENTRAL REGION
1224,Aft Cuscaden Rd,1.3041995,103.82355,kml_42,ORCHARD,CENTRAL REGION
1225,British Council,1.305435,103.82178,kml_33,TANGLIN,CENTRAL REGION
1226,Opp British Council,1.3060898,103.82122,kml_33,TANGLIN,CENTRAL REGION
1227,Aft Tomlinson Rd,1.3060263,103.82568,kml_33,TANGLIN,CENTRAL REGION
1228,Delfi Orchard,1.3070135,103.828354,kml_42,ORCHARD,CENTRAL REGION
1229,Royal Thai Embassy,1.3058797,103.83049,kml_42,ORCHARD,CENTRAL REGION
1230,Orchard Stn/Tang Plaza,1.3044606,103.83295,kml_42,ORCHARD,CENTRAL REGION
1231,The Regent S'pore,1.3048866,103.8255,kml_42,ORCHARD,CENTRAL REGION
1232,Royal Plaza On Scotts,1.3070223,103.83266,kml_42,ORCHARD,CENTRAL REGION
1233,Thong Teck Bldg,1.3078381,103.83305,kml_42,ORCHARD,CENTRAL REGION
1234,Far East Plaza,1.30732,103.83316,kml_42,ORCHARD,CENTRAL REGION
1235,Bt Merah Int,1.2821015,103.81722,kml_1,BUKIT MERAH,CENTRAL REGION
1236,Bt Merah Int,1.2821015,103.81722,kml_1,BUKIT MERAH,CENTRAL REGION
1237,BEF NEIL RD,1.2777381,103.837494,kml_1,BUKIT MERAH,CENTRAL REGION
1238,Aft Hosp Dr,1.2783204,103.83762,kml_1,BUKIT MERAH,CENTRAL REGION
1239,Outram Pk Stn Exit F/SGH,1.2790082,103.8386,kml_1,BUKIT MERAH,CENTRAL REGION
1241,Blk 3,1.2774484,103.83839,kml_1,BUKIT MERAH,CENTRAL REGION
1243,BEF KAMPONG BAHRU TER,1.2760583,103.83519,kml_1,BUKIT MERAH,CENTRAL REGION
1244,OPP KAMPONG BAHRU TER,1.2762331,103.83484,kml_1,BUKIT MERAH,CENTRAL REGION
1245,Blk 149,1.2774116,103.832146,kml_1,BUKIT MERAH,CENTRAL REGION
1246,Opp Blk 149,1.2773967,103.83275,kml_1,BUKIT MERAH,CENTRAL REGION
1247,Blk 140,1.2786047,103.82948,kml_1,BUKIT MERAH,CENTRAL REGION
1248,Opp Blk 140,1.2785547,103.830086,kml_1,BUKIT MERAH,CENTRAL REGION
1249,Blk 111,1.2804531,103.826385,kml_1,BUKIT MERAH,CENTRAL REGION
1250,Blk 201,1.280395,103.82709,kml_1,BUKIT MERAH,CENTRAL REGION
1251,Opp Blk 120,1.2822783,103.82242,kml_1,BUKIT MERAH,CENTRAL REGION
1253,Opp Blk 120,1.2822783,103.82242,kml_1,BUKIT MERAH,CENTRAL REGION
1254,Blk 119,1.2829233,103.821655,kml_1,BUKIT MERAH,CENTRAL REGION
1255,Bt Merah Town Ctr,1.283941,103.81784,kml_1,BUKIT MERAH,CENTRAL REGION
1256,Opp Bt Merah Town Ctr,1.2842093,103.81766,kml_1,BUKIT MERAH,CENTRAL REGION
1257,OPP BT MERAH SEC SCH,1.285062,103.81378,kml_1,BUKIT MERAH,CENTRAL REGION
1258,BT MERAH SEC SCH,1.2853532,103.813705,kml_1,BUKIT MERAH,CENTRAL REGION
1259,Opp Blk 28,1.2859284,103.80936,kml_1,BUKIT MERAH,CENTRAL REGION
1260,Opp Pacific Tech Ctr,1.2859801,103.811226,kml_1,BUKIT MERAH,CENTRAL REGION
1261,Opp Blk 2,1.2861915,103.80686,kml_1,BUKIT MERAH,CENTRAL REGION
1262,Blk 1,1.2863513,103.8081,kml_1,BUKIT MERAH,CENTRAL REGION
1263,Blk 18,1.2858385,103.83238,kml_1,BUKIT MERAH,CENTRAL REGION
1264,Blk 1,1.286068,103.83283,kml_1,BUKIT MERAH,CENTRAL REGION
1265,Ctrl Green Condo,1.2857205,103.82853,kml_1,BUKIT MERAH,CENTRAL REGION
1266,Opp Tiong Bahru Stn,1.2859313,103.82669,kml_1,BUKIT MERAH,CENTRAL REGION
1267,Tiong Bahru Stn,1.2859997,103.827484,kml_1,BUKIT MERAH,CENTRAL REGION
1268,Opp Tiong Bahru Pk,1.287368,103.82346,kml_1,BUKIT MERAH,CENTRAL REGION
1269,Tiong Bahru Pk,1.2872233,103.82396,kml_1,BUKIT MERAH,CENTRAL REGION
1270,BEF AR-RABITAH MQUE,1.288504,103.8211,kml_1,BUKIT MERAH,CENTRAL REGION
1271,Blk 104A CP,1.288588,103.82183,kml_1,BUKIT MERAH,CENTRAL REGION
1272,Blk 78,1.2886002,103.81903,kml_1,BUKIT MERAH,CENTRAL REGION
1273,Delta Swim Cplx,1.2887572,103.81937,kml_1,BUKIT MERAH,CENTRAL REGION
1274,Opp Redhill Stn,1.2892815,103.81663,kml_1,BUKIT MERAH,CENTRAL REGION
1275,Redhill Stn,1.2895464,103.81673,kml_1,BUKIT MERAH,CENTRAL REGION
1276,Porsche Ctr S'pore,1.290755,103.81144,kml_1,BUKIT MERAH,CENTRAL REGION
1277,Opp Motor Image,1.2908952,103.81191,kml_1,BUKIT MERAH,CENTRAL REGION
1278,Ganges Ctr,1.2903291,103.831116,kml_1,BUKIT MERAH,CENTRAL REGION
1279,Opp Harvest Mansions,1.2905214,103.83178,kml_1,BUKIT MERAH,CENTRAL REGION
1280,Blk 51 CP,1.2904185,103.82788,kml_1,BUKIT MERAH,CENTRAL REGION
1281,Blk 79,1.2906069,103.82865,kml_1,BUKIT MERAH,CENTRAL REGION
1282,Gan Eng Seng Sec Sch,1.2906166,103.82362,kml_1,BUKIT MERAH,CENTRAL REGION
1283,Opp Gan Eng Seng Sec Sch,1.2908814,103.82408,kml_1,BUKIT MERAH,CENTRAL REGION
1284,Delta Sports Hall,1.2909033,103.82047,kml_1,BUKIT MERAH,CENTRAL REGION
1285,Opp Delta Sports Hall,1.2912533,103.82058,kml_1,BUKIT MERAH,CENTRAL REGION
1286,Opp Tanglin View,1.29116,103.81757,kml_1,BUKIT MERAH,CENTRAL REGION
1287,Tanglin View,1.2915137,103.81757,kml_1,BUKIT MERAH,CENTRAL REGION
1288,SIS Bldg,1.2915384,103.81445,kml_1,BUKIT MERAH,CENTRAL REGION
1289,Opp SIS Bldg,1.29187,103.81441,kml_24,QUEENSTOWN,CENTRAL REGION
1290,Bef Dawson Rd,1.2921586,103.81066,kml_1,BUKIT MERAH,CENTRAL REGION
1291,Aft Dawson Rd,1.292335,103.81146,kml_24,QUEENSTOWN,CENTRAL REGION
1296,Aft Margaret Dr,1.2942833,103.81588,kml_24,QUEENSTOWN,CENTRAL REGION
1297,Crescent Girls' Sch,1.2936467,103.81597,kml_1,BUKIT MERAH,CENTRAL REGION
1298,Bef Bt Merah Ctrl,1.281363,103.818344,kml_1,BUKIT MERAH,CENTRAL REGION
1299,Aft Bt Merah Ctrl,1.2811583,103.81857,kml_1,BUKIT MERAH,CENTRAL REGION
1300,Opp Blk 116,1.2848464,103.820595,kml_1,BUKIT MERAH,CENTRAL REGION
1301,Blk 116,1.2849834,103.821045,kml_1,BUKIT MERAH,CENTRAL REGION
1302,Bef Tiong Bahru Rd,1.286755,103.82205,kml_1,BUKIT MERAH,CENTRAL REGION
1303,Aft Tiong Bahru Rd,1.2872384,103.82259,kml_1,BUKIT MERAH,CENTRAL REGION
1304,Cendex Ctr,1.280381,103.82353,kml_1,BUKIT MERAH,CENTRAL REGION
1305,Opp Cendex Ctr,1.2803748,103.823875,kml_1,BUKIT MERAH,CENTRAL REGION
1306,Blk 129,1.2836508,103.8245,kml_1,BUKIT MERAH,CENTRAL REGION
1307,Blk 25B,1.283736,103.8249,kml_1,BUKIT MERAH,CENTRAL REGION
1308,Opp Blk 48,1.2890698,103.82559,kml_1,BUKIT MERAH,CENTRAL REGION
1309,Blk 48,1.2887583,103.82574,kml_1,BUKIT MERAH,CENTRAL REGION
1310,Opp Melati Blk 2,1.2762711,103.83125,kml_1,BUKIT MERAH,CENTRAL REGION
1311,Melati Blk 2,1.2758816,103.83019,kml_1,BUKIT MERAH,CENTRAL REGION
1312,Shriro Hse,1.2881674,103.811676,kml_1,BUKIT MERAH,CENTRAL REGION
1313,Blk 50,1.2878822,103.81099,kml_1,BUKIT MERAH,CENTRAL REGION
1314,Opp Blk 53,1.2891299,103.812805,kml_1,BUKIT MERAH,CENTRAL REGION
1315,Blk 52,1.2884202,103.81258,kml_1,BUKIT MERAH,CENTRAL REGION
1316,Blk 63B,1.2889706,103.81503,kml_1,BUKIT MERAH,CENTRAL REGION
1317,Blk 54,1.2892779,103.81405,kml_1,BUKIT MERAH,CENTRAL REGION
1318,ENABLING VILLAGE,1.2870839,103.813995,kml_1,BUKIT MERAH,CENTRAL REGION
1319,OPP ENABLING VILLAGE,1.2874795,103.814186,kml_1,BUKIT MERAH,CENTRAL REGION
1320,Opp Blk 44,1.286569,103.81161,kml_1,BUKIT MERAH,CENTRAL REGION
1321,Blk 44,1.2866656,103.81195,kml_1,BUKIT MERAH,CENTRAL REGION
1322,Opp Blk 71,1.2876238,103.81725,kml_1,BUKIT MERAH,CENTRAL REGION
1323,Blk 72,1.2875472,103.8164,kml_1,BUKIT MERAH,CENTRAL REGION
1324,Opp Blk 73,1.2878419,103.81797,kml_1,BUKIT MERAH,CENTRAL REGION
1325,Blk 73,1.2881163,103.81779,kml_1,BUKIT MERAH,CENTRAL REGION
1326,Blk 104,1.2810584,103.82528,kml_1,BUKIT MERAH,CENTRAL REGION
1327,Blk 4,1.291728,103.82612,kml_1,BUKIT MERAH,CENTRAL REGION
1328,Blk 403A,1.3892503,103.872986,kml_27,SENGKANG,NORTH-EAST REGION
1329,Opp Blks 34/35,1.3191547,103.742134,kml_9,JURONG EAST,WEST REGION
1330,Opp Blk 36,1.2888343,103.80925,kml_1,BUKIT MERAH,CENTRAL REGION
1332,Blk 161,1.2832999,103.815475,kml_1,BUKIT MERAH,CENTRAL REGION
1333,Blk 1003,1.2836233,103.81473,kml_1,BUKIT MERAH,CENTRAL REGION
1334,Ghim Moh Ter,1.3110673,103.78932,kml_24,QUEENSTOWN,CENTRAL REGION
1335,Ghim Moh Ter,1.3110673,103.78932,kml_24,QUEENSTOWN,CENTRAL REGION
1336,Pk Hotel Alexandra,1.2867963,103.80566,kml_1,BUKIT MERAH,CENTRAL REGION
1337,Aft Queenstown NPC HQ,1.2894181,103.802284,kml_24,QUEENSTOWN,CENTRAL REGION
1338,Blk 166,1.2901347,103.802025,kml_24,QUEENSTOWN,CENTRAL REGION
1339,Opp Queen's Cl,1.2911967,103.80045,kml_24,QUEENSTOWN,CENTRAL REGION
1340,Blk 19,1.2924576,103.79999,kml_24,QUEENSTOWN,CENTRAL REGION
1341,Aft C'wealth Dr,1.296245,103.79952,kml_24,QUEENSTOWN,CENTRAL REGION
1342,Opp Blessed Sacrament Ch,1.2954609,103.79952,kml_24,QUEENSTOWN,CENTRAL REGION
1343,Opp Queenstown Polyclinic,1.2987217,103.8003,kml_24,QUEENSTOWN,CENTRAL REGION
1344,Queenstown Polyclinic,1.298829,103.80097,kml_24,QUEENSTOWN,CENTRAL REGION
1345,Opp Queensway Sec Sch,1.3026577,103.801186,kml_24,QUEENSTOWN,CENTRAL REGION
1346,Queensway Sec Sch,1.3023685,103.80162,kml_24,QUEENSTOWN,CENTRAL REGION
1347,Blk 97,1.306213,103.80171,kml_24,QUEENSTOWN,CENTRAL REGION
1348,Opp Blk 95,1.3054414,103.80185,kml_24,QUEENSTOWN,CENTRAL REGION
1349,Viz Holland,1.3085197,103.80258,kml_3,BUKIT TIMAH,CENTRAL REGION
1350,Opp Holland Hill Lodge,1.3094614,103.80334,kml_33,TANGLIN,CENTRAL REGION
1351,Tulip Gdn,1.3121945,103.80367,kml_3,BUKIT TIMAH,CENTRAL REGION
1352,Opp Tulip Gdn,1.3130534,103.804375,kml_33,TANGLIN,CENTRAL REGION
1353,Farrer Rd Mkt,1.3161497,103.80596,kml_3,BUKIT TIMAH,CENTRAL REGION
1354,Spanish Village,1.3155247,103.80574,kml_33,TANGLIN,CENTRAL REGION
1355,Farrer Rd Stn Exit B,1.3178016,103.80772,kml_3,BUKIT TIMAH,CENTRAL REGION
1356,Farrer Rd Stn Exit A,1.3174783,103.80785,kml_33,TANGLIN,CENTRAL REGION
1357,Blk 53A CP,1.2931986,103.80745,kml_24,QUEENSTOWN,CENTRAL REGION
1358,Queenstown Stn Exit A/D,1.2946371,103.805824,kml_24,QUEENSTOWN,CENTRAL REGION
1359,Queenstown Stn Exit B/C,1.2950641,103.80596,kml_24,QUEENSTOWN,CENTRAL REGION
1360,Blk 42,1.2986358,103.802475,kml_24,QUEENSTOWN,CENTRAL REGION
1361,Aft Ch Of Our Saviour,1.2980044,103.80363,kml_24,QUEENSTOWN,CENTRAL REGION
1362,C'Wealth Stn Exit A/D,1.3021331,103.79839,kml_24,QUEENSTOWN,CENTRAL REGION
1363,C'Wealth Stn Exit B/C,1.302705,103.79838,kml_24,QUEENSTOWN,CENTRAL REGION
1364,Opp Blk 7B,1.3053566,103.7948,kml_24,QUEENSTOWN,CENTRAL REGION
1365,Blk 8,1.3062752,103.79428,kml_24,QUEENSTOWN,CENTRAL REGION
1366,Opp Blk 43,1.3072233,103.792274,kml_24,QUEENSTOWN,CENTRAL REGION
1367,Blk 43,1.3074014,103.79254,kml_24,QUEENSTOWN,CENTRAL REGION
1368,The Star Vista,1.3080164,103.788376,kml_24,QUEENSTOWN,CENTRAL REGION
1369,Blk 15,1.3083797,103.78843,kml_24,QUEENSTOWN,CENTRAL REGION
1370,CSC Dempsey Clubhse,1.3069264,103.81187,kml_33,TANGLIN,CENTRAL REGION
1371,Opp Peirce Rd,1.3081728,103.81039,kml_33,TANGLIN,CENTRAL REGION
1372,Aft Peirce Rd,1.3083878,103.809395,kml_33,TANGLIN,CENTRAL REGION
1373,Great Eastern Mansions,1.309885,103.80717,kml_33,TANGLIN,CENTRAL REGION
1374,Lien Twrs,1.3100222,103.80544,kml_33,TANGLIN,CENTRAL REGION
1375,Sommerville Pk,1.3106006,103.80523,kml_33,TANGLIN,CENTRAL REGION
1376,Aft Estoril Mansions,1.3111532,103.8012,kml_3,BUKIT TIMAH,CENTRAL REGION
1377,Fairlodge,1.3115286,103.80166,kml_3,BUKIT TIMAH,CENTRAL REGION
1378,Opp Blk 21,1.3111988,103.79274,kml_24,QUEENSTOWN,CENTRAL REGION
1379,Holland Village,1.3122317,103.79445,kml_24,QUEENSTOWN,CENTRAL REGION
1380,Opp Holland Village,1.3125612,103.79454,kml_3,BUKIT TIMAH,CENTRAL REGION
1381,Aft East Sussex Lane,1.3147345,103.790085,kml_3,BUKIT TIMAH,CENTRAL REGION
1382,Aft Coronation Rd West,1.3146688,103.790695,kml_3,BUKIT TIMAH,CENTRAL REGION
1383,Aft Tan Boon Chong Ave,1.316227,103.78852,kml_3,BUKIT TIMAH,CENTRAL REGION
1384,Opp Tan Boon Chong Ave,1.3161889,103.78904,kml_3,BUKIT TIMAH,CENTRAL REGION
1385,Cold Storage Jelita,1.3179278,103.78593,kml_3,BUKIT TIMAH,CENTRAL REGION
1386,Opp Cold Storage Jelita,1.3182697,103.78559,kml_3,BUKIT TIMAH,CENTRAL REGION
1387,Hse No. 578,1.3180398,103.7879,kml_3,BUKIT TIMAH,CENTRAL REGION
1388,Hse No. 589,1.3186245,103.78843,kml_3,BUKIT TIMAH,CENTRAL REGION
1389,Hse No. 532,1.3198963,103.789185,kml_3,BUKIT TIMAH,CENTRAL REGION
1390,Opp Hse No. 516,1.3203064,103.7896,kml_3,BUKIT TIMAH,CENTRAL REGION
1391,Opp Regent Villa,1.3212314,103.7901,kml_3,BUKIT TIMAH,CENTRAL REGION
1392,Regent Villa,1.3223614,103.79098,kml_3,BUKIT TIMAH,CENTRAL REGION
1393,Opp Dynasty Gdn II,1.3232092,103.79144,kml_3,BUKIT TIMAH,CENTRAL REGION
1394,Dynasty Lodge,1.3239864,103.792046,kml_3,BUKIT TIMAH,CENTRAL REGION
1395,Garlick Ville,1.325515,103.79283,kml_3,BUKIT TIMAH,CENTRAL REGION
1396,Opp Garlick Ville,1.3256661,103.793076,kml_3,BUKIT TIMAH,CENTRAL REGION
1397,Blk 13,1.3093457,103.78945,kml_24,QUEENSTOWN,CENTRAL REGION
1398,Opp Blk 13,1.3093102,103.78969,kml_24,QUEENSTOWN,CENTRAL REGION
1399,Buona Vista Stn Exit C,1.306497,103.79058,kml_24,QUEENSTOWN,CENTRAL REGION
1400,Buona Vista Stn Exit D,1.3063259,103.79085,kml_24,QUEENSTOWN,CENTRAL REGION
1401,Blk 691A CP,1.3424622,103.70554,kml_10,JURONG WEST,WEST REGION
1402,Buona Vista Ter,1.30917,103.792366,kml_24,QUEENSTOWN,CENTRAL REGION
1403,Buona Vista Ter,1.30917,103.792366,kml_24,QUEENSTOWN,CENTRAL REGION
1404,Blk 10A,1.3084114,103.79328,kml_24,QUEENSTOWN,CENTRAL REGION
1405,Blk 46,1.309065,103.79293,kml_24,QUEENSTOWN,CENTRAL REGION
1406,Holland V Stn/Blk12,1.3090672,103.795074,kml_24,QUEENSTOWN,CENTRAL REGION
1407,Blk 9,1.3076441,103.79433,kml_24,QUEENSTOWN,CENTRAL REGION
1408,Holland V Stn Exit A,1.3110298,103.79604,kml_3,BUKIT TIMAH,CENTRAL REGION
1409,Opp Blk 115B,1.30454,103.79836,kml_24,QUEENSTOWN,CENTRAL REGION
1410,Blk 92,1.3060647,103.8003,kml_24,QUEENSTOWN,CENTRAL REGION
1411,Blk 58,1.2978041,103.79754,kml_24,QUEENSTOWN,CENTRAL REGION
1412,Blk 37B,1.2984053,103.7976,kml_24,QUEENSTOWN,CENTRAL REGION
1413,Blk 72,1.3003497,103.79707,kml_24,QUEENSTOWN,CENTRAL REGION
1414,Blk 50,1.3009706,103.79685,kml_24,QUEENSTOWN,CENTRAL REGION
1415,Queensway Sec Sch,1.3011351,103.80189,kml_24,QUEENSTOWN,CENTRAL REGION
1416,Opp The Fisherman Ch,1.299519,103.803154,kml_24,QUEENSTOWN,CENTRAL REGION
1418,Queenstown Lib,1.2981151,103.80601,kml_24,QUEENSTOWN,CENTRAL REGION
1419,Opp Queenstown Lib,1.298817,103.8044,kml_24,QUEENSTOWN,CENTRAL REGION
1420,Opp Queenstown Pr Sch,1.297102,103.80764,kml_24,QUEENSTOWN,CENTRAL REGION
1421,Queenstown Pr Sch,1.2968506,103.807884,kml_24,QUEENSTOWN,CENTRAL REGION
1422,Alexandra Hosp,1.2859468,103.80252,kml_24,QUEENSTOWN,CENTRAL REGION
1423,Opp Queensway Shop Ctr,1.2866575,103.803345,kml_1,BUKIT MERAH,CENTRAL REGION
1424,Anchorpoint,1.288571,103.80543,kml_24,QUEENSTOWN,CENTRAL REGION
1425,Bef IKEA Ind Bldg,1.2890311,103.80609,kml_1,BUKIT MERAH,CENTRAL REGION
1426,Opp Lea Hin Hardware Fty,1.2910883,103.80753,kml_24,QUEENSTOWN,CENTRAL REGION
1427,Lea Hin Hardware Fty,1.2911705,103.80786,kml_1,BUKIT MERAH,CENTRAL REGION
1428,Opp Queens,1.2923598,103.805786,kml_24,QUEENSTOWN,CENTRAL REGION
1429,Tiong Ghee Tp,1.291267,103.80409,kml_24,QUEENSTOWN,CENTRAL REGION
1430,Blk 166,1.2910739,103.802475,kml_24,QUEENSTOWN,CENTRAL REGION
1431,Blk 158,1.2925649,103.80303,kml_24,QUEENSTOWN,CENTRAL REGION
1432,Blk 157,1.2929919,103.80401,kml_24,QUEENSTOWN,CENTRAL REGION
1433,Blk 153,1.294208,103.80315,kml_24,QUEENSTOWN,CENTRAL REGION
1434,Blk 163,1.2918897,103.802124,kml_24,QUEENSTOWN,CENTRAL REGION
1435,Bef Moonbeam Wk,1.3190764,103.78243,kml_3,BUKIT TIMAH,CENTRAL REGION
1436,Opp Moonbeam Wk,1.3195837,103.78244,kml_3,BUKIT TIMAH,CENTRAL REGION
1437,Pandan Valley Condo,1.3208009,103.779625,kml_3,BUKIT TIMAH,CENTRAL REGION
1438,Opp Pandan Valley Condo,1.3210453,103.78019,kml_3,BUKIT TIMAH,CENTRAL REGION
1439,Aft Pandan Valley,1.3204917,103.776535,kml_3,BUKIT TIMAH,CENTRAL REGION
1440,Opp Pandan Valley,1.3209113,103.77656,kml_3,BUKIT TIMAH,CENTRAL REGION
1441,Pine Gr Condo,1.320429,103.77506,kml_3,BUKIT TIMAH,CENTRAL REGION
1442,Opp Pine Gr Condo,1.3207273,103.77516,kml_3,BUKIT TIMAH,CENTRAL REGION
1443,Blk 109,1.321785,103.770874,kml_7,CLEMENTI,WEST REGION
1444,Opp Blk 109A,1.3214331,103.77104,kml_3,BUKIT TIMAH,CENTRAL REGION
1445,Blk 116,1.3240225,103.772194,kml_7,CLEMENTI,WEST REGION
1446,Opp Blk 116,1.3238319,103.77263,kml_3,BUKIT TIMAH,CENTRAL REGION
1447,Maju Camp,1.3264681,103.77543,kml_7,CLEMENTI,WEST REGION
1448,Opp Maju Camp,1.3262612,103.77571,kml_3,BUKIT TIMAH,CENTRAL REGION
1449,SIM HQ,1.3291831,103.777145,kml_3,BUKIT TIMAH,CENTRAL REGION
1450,Opp SIM HQ,1.3278381,103.7767,kml_3,BUKIT TIMAH,CENTRAL REGION
1451,Ngee Ann Poly,1.332439,103.77769,kml_3,BUKIT TIMAH,CENTRAL REGION
1452,Opp Ngee Ann Poly,1.3308195,103.77801,kml_3,BUKIT TIMAH,CENTRAL REGION
1453,Bef Clementi Rd,1.3191179,103.77223,kml_3,BUKIT TIMAH,CENTRAL REGION
1454,Police KINS Trg Camp,1.319646,103.77279,kml_3,BUKIT TIMAH,CENTRAL REGION
1455,Blk 7,1.3116484,103.787155,kml_24,QUEENSTOWN,CENTRAL REGION
1456,Blk 3,1.3118211,103.78732,kml_24,QUEENSTOWN,CENTRAL REGION
1457,Aft Grove Ave,1.3141594,103.785065,kml_3,BUKIT TIMAH,CENTRAL REGION
1458,Aft Mt Sinai Lane,1.3145318,103.78504,kml_24,QUEENSTOWN,CENTRAL REGION
1459,Opp Henry Pk,1.3157439,103.782394,kml_3,BUKIT TIMAH,CENTRAL REGION
1460,Henry Pk,1.315769,103.78266,kml_3,BUKIT TIMAH,CENTRAL REGION
1461,Bef Moonbeam Terr,1.3186506,103.78127,kml_3,BUKIT TIMAH,CENTRAL REGION
1462,Pandan Valley,1.3191655,103.777245,kml_3,BUKIT TIMAH,CENTRAL REGION
1463,Montview,1.316795,103.77699,kml_3,BUKIT TIMAH,CENTRAL REGION
1464,Bef Mt Sinai Dr,1.316427,103.78023,kml_3,BUKIT TIMAH,CENTRAL REGION
1465,Opp Village Twr,1.31548,103.778206,kml_3,BUKIT TIMAH,CENTRAL REGION
1466,Logishub @ Clementi,1.3267083,103.76399,kml_7,CLEMENTI,WEST REGION
1467,Opp Logishub @ Clementi,1.326532,103.7643,kml_7,CLEMENTI,WEST REGION
1468,Opp S'pore Botanic Gdns,1.306516,103.81922,kml_33,TANGLIN,CENTRAL REGION
1469,S'pore Botanic Gdns,1.306738,103.82013,kml_33,TANGLIN,CENTRAL REGION
1470,Aft Min Of Foreign Affairs,1.3063397,103.81431,kml_33,TANGLIN,CENTRAL REGION
1471,Bef Tyersall Ave,1.3067179,103.81452,kml_33,TANGLIN,CENTRAL REGION
1472,Opp Chatsworth Rd,1.2991297,103.81708,kml_33,TANGLIN,CENTRAL REGION
1473,Bef Chatsworth Rd,1.2998158,103.817444,kml_33,TANGLIN,CENTRAL REGION
1474,Aft Rochalie Dr,1.3024284,103.81968,kml_33,TANGLIN,CENTRAL REGION
1475,Bef Rochalie Dr,1.3026167,103.82045,kml_33,TANGLIN,CENTRAL REGION
1476,Opp Valley Pt,1.2933431,103.82636,kml_33,TANGLIN,CENTRAL REGION
1477,Valley Pt,1.2932827,103.82664,kml_33,TANGLIN,CENTRAL REGION
1478,STELLAR RV,1.2947668,103.82853,kml_33,TANGLIN,CENTRAL REGION
1479,RV RESIDENCES,1.29488,103.82881,kml_33,TANGLIN,CENTRAL REGION
1480,Riva Lodge,1.296362,103.83225,kml_44,RIVER VALLEY,CENTRAL REGION
1481,The Cosmopolitan,1.2961221,103.83229,kml_46,SINGAPORE RIVER,CENTRAL REGION
1482,St. Thomas Wk,1.2959114,103.83624,kml_44,RIVER VALLEY,CENTRAL REGION
1483,Opp St. Thomas Wk,1.2957511,103.836044,kml_44,RIVER VALLEY,CENTRAL REGION
1484,AFT KIM YAM RD,1.2959313,103.83938,kml_44,RIVER VALLEY,CENTRAL REGION
1485,BEF KIM YAM RD,1.2957803,103.839615,kml_44,RIVER VALLEY,CENTRAL REGION
1486,Opp Mohd Sultan Rd,1.2941417,103.842316,kml_40,MUSEUM,CENTRAL REGION
1487,UE Sq/Bef Mohd Sultan Rd,1.2935095,103.84273,kml_46,SINGAPORE RIVER,CENTRAL REGION
1488,Opp Great World City,1.2936268,103.83284,kml_46,SINGAPORE RIVER,CENTRAL REGION
1489,Opp Great World City,1.2940922,103.83084,kml_33,TANGLIN,CENTRAL REGION
1490,The Trillium,1.2950426,103.832054,kml_46,SINGAPORE RIVER,CENTRAL REGION
1491,Aft Zion Full Gospel Ch,1.2976369,103.82998,kml_33,TANGLIN,CENTRAL REGION
1492,Bef Zion Full Gospel Ch,1.2979602,103.83053,kml_44,RIVER VALLEY,CENTRAL REGION
1493,Grange 80 Condo,1.299103,103.82839,kml_44,RIVER VALLEY,CENTRAL REGION
1494,Gramercy Pk,1.2990681,103.82651,kml_33,TANGLIN,CENTRAL REGION
1495,Cliveden At Grange,1.2992575,103.82665,kml_44,RIVER VALLEY,CENTRAL REGION
1496,Aft One Tree Hill,1.3002323,103.824036,kml_33,TANGLIN,CENTRAL REGION
1497,Bef One Tree Hill,1.3003817,103.82415,kml_44,RIVER VALLEY,CENTRAL REGION
1498,Bef Orchard Blvd,1.302461,103.82978,kml_44,RIVER VALLEY,CENTRAL REGION
1499,Aft Orchard Blvd,1.302127,103.82987,kml_44,RIVER VALLEY,CENTRAL REGION
1500,Opp British High Comm,1.304031,103.82206,kml_33,TANGLIN,CENTRAL REGION
1502,Blk 25,1.4418092,103.77109,kml_54,WOODLANDS,NORTH REGION
1503,Blk 25,1.4418092,103.77109,kml_54,WOODLANDS,NORTH REGION
1504,Bef Mt Faber Lodge,1.2679545,103.82552,kml_1,BUKIT MERAH,CENTRAL REGION
1505,Opp Mt Faber Lodge,1.2684889,103.825714,kml_1,BUKIT MERAH,CENTRAL REGION
1506,The Pearl @ Mt Faber,1.2713298,103.82478,kml_1,BUKIT MERAH,CENTRAL REGION
1507,Blk 105,1.2724733,103.82419,kml_1,BUKIT MERAH,CENTRAL REGION
1508,St. Theresa's Convent,1.2762427,103.82306,kml_1,BUKIT MERAH,CENTRAL REGION
1509,Opp St. Theresa's Convent,1.2766364,103.823456,kml_1,BUKIT MERAH,CENTRAL REGION
1510,Blk 54,1.2732728,103.81247,kml_1,BUKIT MERAH,CENTRAL REGION
1511,Opp Blk 55,1.2732416,103.81304,kml_1,BUKIT MERAH,CENTRAL REGION
1512,Aft Telok Blangah Hts,1.275815,103.81508,kml_1,BUKIT MERAH,CENTRAL REGION
1513,Bef Telok Blangah Hts,1.2753749,103.81515,kml_1,BUKIT MERAH,CENTRAL REGION
1514,Opp Former Railway Stn,1.2723126,103.83862,kml_1,BUKIT MERAH,CENTRAL REGION
1515,Former Railway Stn,1.2725381,103.83641,kml_1,BUKIT MERAH,CENTRAL REGION
1516,Keppel Workshop,1.2722034,103.8339,kml_1,BUKIT MERAH,CENTRAL REGION
1517,Tg Pagar DP Blk F5,1.2708961,103.830894,kml_1,BUKIT MERAH,CENTRAL REGION
1518,Opp Tg Pagar DP Blk F5,1.27046,103.829796,kml_1,BUKIT MERAH,CENTRAL REGION
1519,Opp Keppel DP Blk 517,1.268375,103.828255,kml_1,BUKIT MERAH,CENTRAL REGION
1520,Keppel DP Blk 517,1.268046,103.827225,kml_1,BUKIT MERAH,CENTRAL REGION
1521,Lighthouse,1.378241,103.95955,kml_16,PASIR RIS,EAST REGION
1522,Opp VivoCity,1.2659236,103.82228,kml_1,BUKIT MERAH,CENTRAL REGION
1523,Opp HarbourFront Int,1.2659135,103.81926,kml_1,BUKIT MERAH,CENTRAL REGION
1524,Harbourfront Stn Exit A,1.2660787,103.81978,kml_1,BUKIT MERAH,CENTRAL REGION
1525,Caribbean at Keppel Bay,1.2674013,103.81676,kml_1,BUKIT MERAH,CENTRAL REGION
1526,Bef Seah Im Rd,1.2686353,103.81547,kml_1,BUKIT MERAH,CENTRAL REGION
1527,Opp Yeo's Bldg,1.2714596,103.80655,kml_1,BUKIT MERAH,CENTRAL REGION
1528,Opp Chr Community Chapel,1.2696477,103.812935,kml_1,BUKIT MERAH,CENTRAL REGION
1529,Bef Chr Community Chapel,1.2699405,103.813156,kml_1,BUKIT MERAH,CENTRAL REGION
1530,Telok Blangah Stn,1.2707586,103.8101,kml_1,BUKIT MERAH,CENTRAL REGION
1531,Opp Telok Blangah Stn,1.2711855,103.80942,kml_1,BUKIT MERAH,CENTRAL REGION
1532,Yeo's Bldg,1.2718846,103.8063,kml_1,BUKIT MERAH,CENTRAL REGION
1534,Aft Alexandra Rd,1.272693,103.803986,kml_1,BUKIT MERAH,CENTRAL REGION
1535,Blk 105 CP,1.2812183,103.81211,kml_1,BUKIT MERAH,CENTRAL REGION
1536,Blk 118,1.2813168,103.81275,kml_1,BUKIT MERAH,CENTRAL REGION
1537,Blk 110,1.2816731,103.80914,kml_1,BUKIT MERAH,CENTRAL REGION
1538,Aft Hewlett Packard,1.281764,103.809586,kml_1,BUKIT MERAH,CENTRAL REGION
1539,ISS Intl Sch,1.2816117,103.80522,kml_1,BUKIT MERAH,CENTRAL REGION
1540,Opp Blk 114,1.2821865,103.80685,kml_1,BUKIT MERAH,CENTRAL REGION
1541,Opp St. Teresa's Ch,1.2735933,103.82893,kml_1,BUKIT MERAH,CENTRAL REGION
1542,St. Teresa's Ch,1.2737067,103.828575,kml_1,BUKIT MERAH,CENTRAL REGION
1543,Keppel DP Blk 519,1.27101,103.826675,kml_1,BUKIT MERAH,CENTRAL REGION
1544,Opp Keppel DP Blk 519,1.2717813,103.82714,kml_1,BUKIT MERAH,CENTRAL REGION
1545,Opp Blk 1,1.2791436,103.81687,kml_1,BUKIT MERAH,CENTRAL REGION
1546,Blk 1,1.279474,103.81733,kml_1,BUKIT MERAH,CENTRAL REGION
1547,Blk 11,1.277845,103.81866,kml_1,BUKIT MERAH,CENTRAL REGION
1548,Blk 10,1.2775848,103.81999,kml_1,BUKIT MERAH,CENTRAL REGION
1549,Al-Amin Mque,1.275682,103.819145,kml_1,BUKIT MERAH,CENTRAL REGION
1550,Blk 25,1.2759155,103.81921,kml_1,BUKIT MERAH,CENTRAL REGION
1551,Safra Mt Faber,1.2769967,103.81805,kml_1,BUKIT MERAH,CENTRAL REGION
1552,Blk 27,1.2746844,103.82133,kml_1,BUKIT MERAH,CENTRAL REGION
1553,Opp Blk 27,1.2748882,103.82127,kml_1,BUKIT MERAH,CENTRAL REGION
1554,Blk 41,1.271289,103.82303,kml_1,BUKIT MERAH,CENTRAL REGION
1555,Blk 28,1.2734069,103.82072,kml_1,BUKIT MERAH,CENTRAL REGION
1556,Blk 67,1.2743496,103.809456,kml_1,BUKIT MERAH,CENTRAL REGION
1557,Blk 70A,1.2766607,103.81125,kml_1,BUKIT MERAH,CENTRAL REGION
1558,Blk 59,1.2757903,103.8134,kml_1,BUKIT MERAH,CENTRAL REGION
1559,Blk 50,1.2728906,103.81035,kml_1,BUKIT MERAH,CENTRAL REGION
1560,The Interlace,1.2815363,103.80366,kml_1,BUKIT MERAH,CENTRAL REGION
1561,Blk 40,1.2724383,103.82379,kml_1,BUKIT MERAH,CENTRAL REGION
1562,Blk 109,1.2741301,103.82555,kml_1,BUKIT MERAH,CENTRAL REGION
1563,Opp Blk 109,1.2742816,103.82501,kml_1,BUKIT MERAH,CENTRAL REGION
1564,Alexandra Retail Ctr,1.274632,103.801895,kml_24,QUEENSTOWN,CENTRAL REGION
1565,Opp Alexandra Retail Ctr,1.2745905,103.80216,kml_1,BUKIT MERAH,CENTRAL REGION
1566,Alexandra Pt,1.276978,103.80238,kml_24,QUEENSTOWN,CENTRAL REGION
1567,Opp Alexandra Pt,1.2768619,103.802704,kml_1,BUKIT MERAH,CENTRAL REGION
1578,Kent Ridge Stn,1.2925434,103.78449,kml_24,QUEENSTOWN,CENTRAL REGION
1579,Kent Ridge Stn Exit B,1.29241,103.784584,kml_24,QUEENSTOWN,CENTRAL REGION
1580,Labrador Pk Stn,1.2727586,103.80096,kml_24,QUEENSTOWN,CENTRAL REGION
1581,Opp Labrador Pk Stn,1.2734187,103.80055,kml_24,QUEENSTOWN,CENTRAL REGION
1582,Opp Mapletree Biz City,1.2738919,103.798225,kml_24,QUEENSTOWN,CENTRAL REGION
1583,Mapletree Business City,1.274263,103.79839,kml_24,QUEENSTOWN,CENTRAL REGION
1584,Pasir Panjang Ctr,1.274438,103.79666,kml_24,QUEENSTOWN,CENTRAL REGION
1585,Harbourside Ind Bldg 2,1.274815,103.79674,kml_24,QUEENSTOWN,CENTRAL REGION
1586,Opp Ascent,1.291085,103.785416,kml_24,QUEENSTOWN,CENTRAL REGION
1587,Ascent,1.2907978,103.7855,kml_24,QUEENSTOWN,CENTRAL REGION
1588,Pasir Panjang Stn/Fc,1.2758123,103.79263,kml_24,QUEENSTOWN,CENTRAL REGION
1589,Opp Currency Hse,1.2760425,103.79318,kml_24,QUEENSTOWN,CENTRAL REGION
1590,Aft Pasir Panjang Stn,1.2768081,103.78971,kml_24,QUEENSTOWN,CENTRAL REGION
1591,Bef Pasir Panjang Stn,1.2770656,103.79024,kml_24,QUEENSTOWN,CENTRAL REGION
1592,Opp Pasir View Pk,1.2779244,103.78643,kml_24,QUEENSTOWN,CENTRAL REGION
1593,Pasir View Pk,1.2781812,103.78701,kml_24,QUEENSTOWN,CENTRAL REGION
1594,Aft Sth Buona Vista Rd,1.2794993,103.78549,kml_24,QUEENSTOWN,CENTRAL REGION
1595,Bef Sth Buona Vista Rd,1.2793764,103.78573,kml_24,QUEENSTOWN,CENTRAL REGION
1596,Kent Ridge Ter,1.2942535,103.76988,kml_24,QUEENSTOWN,CENTRAL REGION
1597,Kent Ridge Ter,1.2942535,103.76988,kml_24,QUEENSTOWN,CENTRAL REGION
1598,Opp Haw Par Villa Stn,1.2827777,103.78187,kml_24,QUEENSTOWN,CENTRAL REGION
1599,Haw Par Villa Stn,1.2827808,103.78217,kml_24,QUEENSTOWN,CENTRAL REGION
1600,Opp Gloria Mansion,1.286258,103.77981,kml_24,QUEENSTOWN,CENTRAL REGION
1601,Gloria Mansion,1.2860848,103.78022,kml_24,QUEENSTOWN,CENTRAL REGION
1602,Opp S'pore Science Pk II,1.2880063,103.778465,kml_24,QUEENSTOWN,CENTRAL REGION
1603,S'pore Science Pk II,1.2879902,103.77872,kml_24,QUEENSTOWN,CENTRAL REGION
1604,OPP LUXE VILLE,1.2893087,103.7766,kml_24,QUEENSTOWN,CENTRAL REGION
1605,WHITEHAVEN,1.289107,103.77739,kml_24,QUEENSTOWN,CENTRAL REGION
1606,The Crystal Tabernacle Ch,1.2901486,103.77426,kml_24,QUEENSTOWN,CENTRAL REGION
1607,Jamiyah Halfway Hse,1.2896726,103.77594,kml_24,QUEENSTOWN,CENTRAL REGION
1608,Opp Heng Mui Keng Terr,1.2904626,103.77356,kml_24,QUEENSTOWN,CENTRAL REGION
1609,Heng Mui Keng Terr,1.2906486,103.7737,kml_24,QUEENSTOWN,CENTRAL REGION
1610,Opp Pasir Panjang PO,1.2912995,103.77117,kml_24,QUEENSTOWN,CENTRAL REGION
1611,Bef Pasir Panjang PO,1.2913827,103.7713,kml_24,QUEENSTOWN,CENTRAL REGION
1612,Aft Palm Green Condo,1.2919577,103.76866,kml_24,QUEENSTOWN,CENTRAL REGION
1613,Aft Clementi Rd,1.2920114,103.76908,kml_24,QUEENSTOWN,CENTRAL REGION
1614,Opp SIT Dover,1.299275,103.779366,kml_24,QUEENSTOWN,CENTRAL REGION
1615,SIT Dover,1.3006124,103.77815,kml_24,QUEENSTOWN,CENTRAL REGION
1616,Opp Kent Ridge Ter,1.2948763,103.769356,kml_7,CLEMENTI,WEST REGION
1617,Bef Kent Ridge Ter,1.2953794,103.769745,kml_24,QUEENSTOWN,CENTRAL REGION
1618,Tentera Diraja Mque,1.2978684,103.76959,kml_7,CLEMENTI,WEST REGION
1619,NUS Fac Of Architecture,1.2978183,103.76994,kml_24,QUEENSTOWN,CENTRAL REGION
1620,The Japanese Pr Sch,1.3007613,103.769936,kml_7,CLEMENTI,WEST REGION
1621,NUS Fac Of Engrg,1.3006034,103.77017,kml_24,QUEENSTOWN,CENTRAL REGION
1622,Nus Museums,1.301075,103.7737,kml_24,QUEENSTOWN,CENTRAL REGION
1623,NUS Raffles Hall,1.3009833,103.772705,kml_24,QUEENSTOWN,CENTRAL REGION
1624,Yusof Ishak Hse,1.2989016,103.77438,kml_24,QUEENSTOWN,CENTRAL REGION
1625,Opp Yusof Ishak Hse,1.2989817,103.77418,kml_24,QUEENSTOWN,CENTRAL REGION
1626,Ctrl Lib,1.2965658,103.772545,kml_24,QUEENSTOWN,CENTRAL REGION
1627,Information Technology,1.297361,103.77285,kml_24,QUEENSTOWN,CENTRAL REGION
1628,Opp NUS Fac Of Architect,1.296143,103.77037,kml_24,QUEENSTOWN,CENTRAL REGION
1629,NUS Fac Of Design & Env,1.296393,103.77073,kml_24,QUEENSTOWN,CENTRAL REGION
1630,Barossa Gdns,1.2813007,103.78411,kml_24,QUEENSTOWN,CENTRAL REGION
1631,HORIZON RESIDENCES,1.2815909,103.784004,kml_24,QUEENSTOWN,CENTRAL REGION
1632,Wharves Bldg,1.2794186,103.78358,kml_24,QUEENSTOWN,CENTRAL REGION
1633,Opp Wharves Bldg,1.2801583,103.78362,kml_24,QUEENSTOWN,CENTRAL REGION
1634,Opp Haw Par Villa Stn,1.2829759,103.78118,kml_24,QUEENSTOWN,CENTRAL REGION
1635,Haw Par Villa Stn,1.283009,103.7816,kml_24,QUEENSTOWN,CENTRAL REGION
1636,Wholesale Ctr,1.2863594,103.77853,kml_24,QUEENSTOWN,CENTRAL REGION
1637,Opp Wholesale Ctr,1.2864352,103.77893,kml_24,QUEENSTOWN,CENTRAL REGION
1638,Bef West Coast Pk,1.289103,103.77353,kml_24,QUEENSTOWN,CENTRAL REGION
1639,Bef Wholesale Ctr,1.2892828,103.77401,kml_24,QUEENSTOWN,CENTRAL REGION
1640,Inst Of Micro-Electronics,1.2892383,103.77969,kml_24,QUEENSTOWN,CENTRAL REGION
1641,Aries,1.2870098,103.78283,kml_24,QUEENSTOWN,CENTRAL REGION
1642,Teletech Pk,1.2869765,103.78261,kml_24,QUEENSTOWN,CENTRAL REGION
1643,The Alpha,1.2891117,103.77951,kml_24,QUEENSTOWN,CENTRAL REGION
1644,Opp Varsity Pk,1.293869,103.766884,kml_7,CLEMENTI,WEST REGION
1645,Varsity Pk,1.2937975,103.76705,kml_7,CLEMENTI,WEST REGION
1646,Waseda S Snr High Sch,1.2967371,103.766914,kml_7,CLEMENTI,WEST REGION
1647,Opp Waseda S Snr High Sch,1.2969457,103.767105,kml_7,CLEMENTI,WEST REGION
1648,Opp Waseda S Snr High Sch,1.2969457,103.767105,kml_7,CLEMENTI,WEST REGION
1649,Kent Ridge Sec Sch,1.301723,103.76568,kml_7,CLEMENTI,WEST REGION
1650,Opp Kent Ridge Sec Sch,1.3015317,103.76607,kml_7,CLEMENTI,WEST REGION
1651,Blk 726 Clementi West Mkt,1.3042102,103.76456,kml_7,CLEMENTI,WEST REGION
1652,Blk 601,1.3047063,103.764595,kml_7,CLEMENTI,WEST REGION
1653,Opp Regent Pk,1.3172641,103.7624,kml_7,CLEMENTI,WEST REGION
1654,Regent Pk,1.3169433,103.7617,kml_7,CLEMENTI,WEST REGION
1655,Blk 701,1.3077583,103.7618,kml_7,CLEMENTI,WEST REGION
1656,Opp Blk 701,1.3077663,103.76214,kml_7,CLEMENTI,WEST REGION
1657,Blk 513,1.3089178,103.760445,kml_7,CLEMENTI,WEST REGION
1658,Blk 512,1.3096831,103.759995,kml_7,CLEMENTI,WEST REGION
1659,Aft Clementi Ave 1,1.309048,103.771576,kml_7,CLEMENTI,WEST REGION
1660,YALE-NUS COLLEGE,1.3078305,103.77165,kml_24,QUEENSTOWN,CENTRAL REGION
1661,Blk 352,1.3148748,103.77179,kml_7,CLEMENTI,WEST REGION
1662,Opp Blk 352,1.3155272,103.77219,kml_24,QUEENSTOWN,CENTRAL REGION
1663,Blk 343,1.3177981,103.77125,kml_7,CLEMENTI,WEST REGION
1664,Opp Blk 343,1.3172845,103.771935,kml_24,QUEENSTOWN,CENTRAL REGION
1665,Blk 610,1.3047642,103.76945,kml_7,CLEMENTI,WEST REGION
1666,Aft NUS High Sch,1.3051413,103.76986,kml_7,CLEMENTI,WEST REGION
1667,Clementi Flyover,1.3080413,103.765915,kml_7,CLEMENTI,WEST REGION
1668,Aft Clementi Swim Cplx,1.309033,103.76587,kml_7,CLEMENTI,WEST REGION
1669,Clementi Stadium,1.310995,103.7635,kml_7,CLEMENTI,WEST REGION
1670,Blk 426,1.3117151,103.76346,kml_7,CLEMENTI,WEST REGION
1671,Blk 410,1.3116952,103.76961,kml_7,CLEMENTI,WEST REGION
1672,Blk 365,1.3119756,103.76981,kml_7,CLEMENTI,WEST REGION
1673,Blk 455,1.3124099,103.76685,kml_7,CLEMENTI,WEST REGION
1674,Blk 329,1.3128452,103.7668,kml_7,CLEMENTI,WEST REGION
1675,Clementi Stn Exit A,1.314974,103.76503,kml_7,CLEMENTI,WEST REGION
1676,Clementi Stn Exit B,1.3152819,103.76536,kml_7,CLEMENTI,WEST REGION
1677,Opp Blk 317,1.3174957,103.763885,kml_7,CLEMENTI,WEST REGION
1678,Blk 317,1.3179051,103.76406,kml_7,CLEMENTI,WEST REGION
1679,NUS High Sch,1.3056694,103.76989,kml_7,CLEMENTI,WEST REGION
1680,Blk 308,1.3205571,103.76735,kml_7,CLEMENTI,WEST REGION
1681,Bet Blks 315/318,1.3182881,103.7659,kml_7,CLEMENTI,WEST REGION
1682,Blk 376,1.3182,103.76616,kml_7,CLEMENTI,WEST REGION
1683,Blk 377,1.3173563,103.7679,kml_7,CLEMENTI,WEST REGION
1684,Blk 335,1.317284,103.76824,kml_7,CLEMENTI,WEST REGION
1685,NTUC Fairprice,1.3124405,103.76585,kml_7,CLEMENTI,WEST REGION
1686,Blk 334,1.3151911,103.76906,kml_7,CLEMENTI,WEST REGION
1687,Blk 355,1.3151711,103.76933,kml_7,CLEMENTI,WEST REGION
1688,Blk 460,1.31148,103.76744,kml_7,CLEMENTI,WEST REGION
1689,Opp Blk 460,1.310928,103.76746,kml_7,CLEMENTI,WEST REGION
1690,Blk 730,1.3051356,103.76274,kml_7,CLEMENTI,WEST REGION
1691,Blk 723,1.302925,103.76319,kml_7,CLEMENTI,WEST REGION
1692,West Coast CC,1.3023249,103.76472,kml_7,CLEMENTI,WEST REGION
1693,West Coast Pk,1.2903514,103.7697,kml_24,QUEENSTOWN,CENTRAL REGION
1694,Opp West Coast Pk,1.2906055,103.77005,kml_24,QUEENSTOWN,CENTRAL REGION
1695,Opp West Coast View,1.2949536,103.76517,kml_24,QUEENSTOWN,CENTRAL REGION
1696,West Coast View,1.2953708,103.76524,kml_7,CLEMENTI,WEST REGION
1697,Opp Blk 801C,1.3010169,103.76229,kml_24,QUEENSTOWN,CENTRAL REGION
1698,Blk 716,1.3018391,103.7623,kml_7,CLEMENTI,WEST REGION
1699,Tien Wah Press Bldg,1.3048341,103.76035,kml_7,CLEMENTI,WEST REGION
1700,Blk 705,1.3050506,103.76058,kml_7,CLEMENTI,WEST REGION
1701,Opp Blk 518,1.3075883,103.75833,kml_7,CLEMENTI,WEST REGION
1702,Blk 518,1.3078573,103.75851,kml_7,CLEMENTI,WEST REGION
1704,Aft Clementi Rd,1.29358,103.76576,kml_24,QUEENSTOWN,CENTRAL REGION
1705,Bef Clementi Rd,1.2933372,103.76622,kml_7,CLEMENTI,WEST REGION
1706,Opp West Coast Link,1.2985975,103.763466,kml_24,QUEENSTOWN,CENTRAL REGION
1707,Aft West Coast Link,1.2984059,103.76387,kml_7,CLEMENTI,WEST REGION
1708,Blk 201,1.3205819,103.763565,kml_7,CLEMENTI,WEST REGION
1709,Blk 304,1.3204908,103.76389,kml_7,CLEMENTI,WEST REGION
1710,West Bay Resort Condo,1.2990764,103.76686,kml_7,CLEMENTI,WEST REGION
1711,Aft Hortpark,1.2808709,103.8021,kml_24,QUEENSTOWN,CENTRAL REGION
1712,Bef Telok Blangah Hill Pk,1.2809106,103.80252,kml_1,BUKIT MERAH,CENTRAL REGION
1716,Normanton Pk,1.2883602,103.793175,kml_24,QUEENSTOWN,CENTRAL REGION
1717,Opp Science Pk,1.2901815,103.79208,kml_24,QUEENSTOWN,CENTRAL REGION
1722,NUH,1.295425,103.78449,kml_24,QUEENSTOWN,CENTRAL REGION
1723,Opp NUH,1.2964817,103.78455,kml_24,QUEENSTOWN,CENTRAL REGION
1727,PSB Science Pk Bldg,1.292825,103.786354,kml_24,QUEENSTOWN,CENTRAL REGION
1728,Opp PSB Science Pk Bldg,1.2940344,103.78673,kml_24,QUEENSTOWN,CENTRAL REGION
1729,Fairfield Meth Pr Sch,1.300593,103.784485,kml_24,QUEENSTOWN,CENTRAL REGION
1730,Opp Fairfield Meth Pr Sch,1.3000464,103.78467,kml_24,QUEENSTOWN,CENTRAL REGION
1731,Opp Ayer Rajah Ind Est,1.2975117,103.78542,kml_24,QUEENSTOWN,CENTRAL REGION
1732,Ayer Rajah Ind Est,1.2977623,103.785706,kml_24,QUEENSTOWN,CENTRAL REGION
1733,Aft Anglo-Chinese JC,1.3041828,103.78788,kml_24,QUEENSTOWN,CENTRAL REGION
1734,Essec Business Sch,1.30253,103.78724,kml_24,QUEENSTOWN,CENTRAL REGION
1735,Opp One-North Stn/Galaxis,1.3005109,103.78864,kml_24,QUEENSTOWN,CENTRAL REGION
1736,One-North Stn/Galaxis,1.3003469,103.78858,kml_24,QUEENSTOWN,CENTRAL REGION
1737,Bef Weyhill Cl,1.2990547,103.79413,kml_24,QUEENSTOWN,CENTRAL REGION
1738,Opp Weyhill Cl,1.2998811,103.793045,kml_24,QUEENSTOWN,CENTRAL REGION
1739,Opp Tanglin Trust Sch,1.2971458,103.79369,kml_24,QUEENSTOWN,CENTRAL REGION
1740,Tanglin Trust Sch,1.2983966,103.7939,kml_24,QUEENSTOWN,CENTRAL REGION
1741,Bef Whitchurch Rd,1.2944561,103.795944,kml_24,QUEENSTOWN,CENTRAL REGION
1742,Aft Whitchurch Rd,1.2954434,103.794075,kml_24,QUEENSTOWN,CENTRAL REGION
1744,Infinite Studios,1.2916182,103.79522,kml_24,QUEENSTOWN,CENTRAL REGION
1745,NUH,1.2963006,103.78346,kml_24,QUEENSTOWN,CENTRAL REGION
1746,Opp NUH,1.2967894,103.78319,kml_24,QUEENSTOWN,CENTRAL REGION
1747,Opp Dnv Gl Technology Ctr,1.290923,103.78708,kml_24,QUEENSTOWN,CENTRAL REGION
1748,Dnv Gl Technology Ctr,1.290724,103.787125,kml_24,QUEENSTOWN,CENTRAL REGION
1749,Opp Reuters,1.2906814,103.78845,kml_24,QUEENSTOWN,CENTRAL REGION
1750,Opp DSO Natl Laboratories,1.29016,103.78934,kml_24,QUEENSTOWN,CENTRAL REGION
1751,Bef Reuters,1.2901033,103.789185,kml_24,QUEENSTOWN,CENTRAL REGION
1752,Opp Blk 85,1.2884064,103.789764,kml_24,QUEENSTOWN,CENTRAL REGION
1754,Blk 19A CP,1.3078164,103.78423,kml_24,QUEENSTOWN,CENTRAL REGION
1755,Blk 27,1.308073,103.78476,kml_24,QUEENSTOWN,CENTRAL REGION
1756,SP SMA,1.309655,103.781204,kml_24,QUEENSTOWN,CENTRAL REGION
1757,Opp SP SMA,1.3095609,103.78202,kml_24,QUEENSTOWN,CENTRAL REGION
1758,Opp Sch Of Science & Tech,1.3123597,103.77553,kml_24,QUEENSTOWN,CENTRAL REGION
1759,Sch Of Science & Tech,1.3126631,103.774796,kml_24,QUEENSTOWN,CENTRAL REGION
1760,New Town Sec Sch,1.3089645,103.773926,kml_24,QUEENSTOWN,CENTRAL REGION
1761,University Town,1.308945,103.77272,kml_24,QUEENSTOWN,CENTRAL REGION
1762,Ayer Rajah Telecoms,1.3075244,103.777824,kml_24,QUEENSTOWN,CENTRAL REGION
1763,Opp Ayer Rajah Telecoms,1.3077875,103.77671,kml_24,QUEENSTOWN,CENTRAL REGION
1764,Opp Acs Independent,1.305155,103.78108,kml_24,QUEENSTOWN,CENTRAL REGION
1765,Dover Ct Intl Sch,1.3061031,103.78013,kml_24,QUEENSTOWN,CENTRAL REGION
1766,Opp ACS Boarding Sch,1.3025697,103.78282,kml_24,QUEENSTOWN,CENTRAL REGION
1767,Acs Independent,1.3037031,103.781845,kml_24,QUEENSTOWN,CENTRAL REGION
1768,S'pore Poly,1.3073928,103.78208,kml_24,QUEENSTOWN,CENTRAL REGION
1769,Opp S'pore Poly,1.3069712,103.78191,kml_24,QUEENSTOWN,CENTRAL REGION
1772,Blk 506,1.3130863,103.761284,kml_7,CLEMENTI,WEST REGION
1773,Blk 431,1.3135761,103.76151,kml_7,CLEMENTI,WEST REGION
1774,NEWEST,1.3167592,103.75789,kml_7,CLEMENTI,WEST REGION
1775,OPP NEWEST,1.3177283,103.75768,kml_7,CLEMENTI,WEST REGION
1776,The Infiniti,1.3205599,103.75465,kml_7,CLEMENTI,WEST REGION
1777,Opp The Infiniti,1.321025,103.754715,kml_7,CLEMENTI,WEST REGION
1778,Cycle & Carriage,1.3225871,103.74754,kml_9,JURONG EAST,WEST REGION
1779,Opp Cycle & Carriage,1.3233211,103.747696,kml_9,JURONG EAST,WEST REGION
1780,Aft Jurong Town Hall Rd,1.3238062,103.74299,kml_9,JURONG EAST,WEST REGION
1781,Bef Jurong Town Hall Rd,1.3240564,103.74419,kml_9,JURONG EAST,WEST REGION
1782,Carrier S'pore,1.3266047,103.73879,kml_9,JURONG EAST,WEST REGION
1783,Opp Carrier S'pore,1.3270297,103.73922,kml_9,JURONG EAST,WEST REGION
1784,Nan Hua Pr Sch,1.3199371,103.76222,kml_7,CLEMENTI,WEST REGION
1785,Blk 203,1.3208522,103.76207,kml_7,CLEMENTI,WEST REGION
1786,S'pore Food Industries Bldg,1.3155936,103.751854,kml_7,CLEMENTI,WEST REGION
1787,Opp Angliss Bldg,1.3158417,103.752045,kml_7,CLEMENTI,WEST REGION
1788,Opp Blk 408,1.31772,103.74877,kml_9,JURONG EAST,WEST REGION
1789,Blk 408,1.3179597,103.74897,kml_9,JURONG EAST,WEST REGION
1790,Opp Blk 411,1.3182967,103.74631,kml_9,JURONG EAST,WEST REGION
1791,Blk 411,1.3185114,103.7464,kml_9,JURONG EAST,WEST REGION
1792,Blk 35,1.3192835,103.742516,kml_9,JURONG EAST,WEST REGION
1793,Aft Teban Gdns Rd,1.3200021,103.7391,kml_9,JURONG EAST,WEST REGION
1794,Ayer Rajah CC,1.3204848,103.74746,kml_9,JURONG EAST,WEST REGION
1795,Opp Ayer Rajah CC,1.320305,103.74728,kml_9,JURONG EAST,WEST REGION
1796,Blk 407,1.3192416,103.74846,kml_9,JURONG EAST,WEST REGION
1797,Blk 410,1.3190811,103.7482,kml_9,JURONG EAST,WEST REGION
1798,Teban Gdn PO,1.3212761,103.74341,kml_9,JURONG EAST,WEST REGION
1799,Bef Jurong Town Hall Rd,1.3204334,103.74407,kml_9,JURONG EAST,WEST REGION
1800,Blk 41,1.321772,103.74184,kml_9,JURONG EAST,WEST REGION
1801,Opp Blk 41,1.3220569,103.74143,kml_9,JURONG EAST,WEST REGION
1802,Bef Hasanah Mque,1.3223441,103.73944,kml_9,JURONG EAST,WEST REGION
1803,Aft Hasanah Mque,1.3224688,103.73947,kml_9,JURONG EAST,WEST REGION
1804,Opp Blk 54,1.3211628,103.73638,kml_9,JURONG EAST,WEST REGION
1805,Blk 54,1.32162,103.7367,kml_9,JURONG EAST,WEST REGION
1806,Bef Teban Gdns Rd,1.319755,103.74447,kml_9,JURONG EAST,WEST REGION
1807,C'wealth Sec Sch,1.3196219,103.74477,kml_9,JURONG EAST,WEST REGION
1808,Aft Pandan Gdns,1.3215997,103.74546,kml_9,JURONG EAST,WEST REGION
1809,Bef Pandan Gdns,1.3215178,103.74581,kml_9,JURONG EAST,WEST REGION
1810,Opp German Ctr,1.3252755,103.74551,kml_9,JURONG EAST,WEST REGION
1811,Opp The Japanese Sec Sch,1.3123422,103.754845,kml_7,CLEMENTI,WEST REGION
1812,The Japanese Sec Sch,1.312488,103.755035,kml_7,CLEMENTI,WEST REGION
1813,Tanglin Sec Sch,1.3109506,103.75771,kml_7,CLEMENTI,WEST REGION
1814,Opp Tanglin Sec Sch,1.310928,103.758575,kml_7,CLEMENTI,WEST REGION
1816,Blk L Pandan Light Ind Pk,1.310623,103.754036,kml_7,CLEMENTI,WEST REGION
1818,Blk T Pandan Light Ind Pk,1.3125947,103.752846,kml_7,CLEMENTI,WEST REGION
1819,S'pore Food Ind,1.3150331,103.75102,kml_7,CLEMENTI,WEST REGION
1820,Vejoil Pte Ltd,1.3132914,103.74926,kml_7,CLEMENTI,WEST REGION
1821,Pan Tech Ind Cplx,1.3118647,103.75047,kml_7,CLEMENTI,WEST REGION
1822,Aft Jurong Lake,1.3253433,103.72867,kml_9,JURONG EAST,WEST REGION
1823,Aft Yuan Ching Rd,1.3255486,103.727036,kml_9,JURONG EAST,WEST REGION
1824,Bef Jurong Port Rd,1.3241932,103.72379,kml_9,JURONG EAST,WEST REGION
1825,AFT CORP PL,1.3242973,103.72181,kml_10,JURONG WEST,WEST REGION
1828,Aft Jln Terusan,1.3209198,103.72012,kml_22,BOON LAY,WEST REGION
1829,Bef Jln Terusan,1.3210725,103.720245,kml_9,JURONG EAST,WEST REGION
1832,Bef Jln Tepong,1.312373,103.719185,kml_9,JURONG EAST,WEST REGION
1833,Jurong Abattoir,1.3139422,103.72227,kml_9,JURONG EAST,WEST REGION
1834,Opp Jurong Abattoir,1.3134276,103.7228,kml_9,JURONG EAST,WEST REGION
1835,Bef Jln Buroh,1.3120649,103.72296,kml_9,JURONG EAST,WEST REGION
1836,Ctrl Fish Proc Fty,1.311003,103.7211,kml_9,JURONG EAST,WEST REGION
1837,Aft Jurong Pier Rd,1.3144264,103.71239,kml_22,BOON LAY,WEST REGION
1838,Bef Jurong Pier Rd,1.313973,103.71202,kml_9,JURONG EAST,WEST REGION
1839,SPC Svc Stn,1.3146913,103.71602,kml_22,BOON LAY,WEST REGION
1840,Opp SPC Svc Stn,1.3142744,103.71493,kml_9,JURONG EAST,WEST REGION
1841,Bef Jurong Port Rd,1.3147084,103.717995,kml_22,BOON LAY,WEST REGION
1842,Aft Jurong Port Rd,1.3143305,103.71847,kml_9,JURONG EAST,WEST REGION
1843,Aft Jln Buroh,1.3151743,103.719574,kml_22,BOON LAY,WEST REGION
1844,Jurong Port Workshops,1.315633,103.719894,kml_9,JURONG EAST,WEST REGION
1845,CWT Distripark,1.316992,103.71989,kml_22,BOON LAY,WEST REGION
1846,Sin Soon Huat,1.3186857,103.72043,kml_9,JURONG EAST,WEST REGION
1847,OPP CORP PL,1.3258164,103.71906,kml_22,BOON LAY,WEST REGION
1848,CORP PL,1.3258617,103.71929,kml_10,JURONG WEST,WEST REGION
1849,Opp Blk 161,1.329915,103.720955,kml_22,BOON LAY,WEST REGION
1850,Blk 161,1.3302605,103.72122,kml_10,JURONG WEST,WEST REGION
1851,Opp Blk 178,1.3329098,103.72044,kml_10,JURONG WEST,WEST REGION
1852,Blk 178,1.3333095,103.72051,kml_10,JURONG WEST,WEST REGION
1853,Opp Taman Jurong Greens,1.336834,103.71779,kml_10,JURONG WEST,WEST REGION
1854,Taman Jurong Greens,1.3368765,103.718056,kml_10,JURONG WEST,WEST REGION
1855,Opp Lakepoint Condo,1.3400497,103.71607,kml_10,JURONG WEST,WEST REGION
1856,Lakepoint Condo,1.3401035,103.71626,kml_10,JURONG WEST,WEST REGION
1857,Opp S'Pore A'Space Mfg,1.34206,103.716,kml_10,JURONG WEST,WEST REGION
1858,Blk 203,1.3435954,103.71599,kml_10,JURONG WEST,WEST REGION
1859,Opp Blk 203,1.3445048,103.71633,kml_10,JURONG WEST,WEST REGION
1860,Opp Blk 213,1.3497367,103.71236,kml_10,JURONG WEST,WEST REGION
1862,Blk 213,1.3495842,103.712494,kml_10,JURONG WEST,WEST REGION
1863,Sime Darby,1.3362412,103.71035,kml_10,JURONG WEST,WEST REGION
1864,Opp Sime Darby,1.3360413,103.710434,kml_10,JURONG WEST,WEST REGION
1865,AFT CHIN BEE AVE,1.3339351,103.71025,kml_10,JURONG WEST,WEST REGION
1866,Bef Chin Bee Ave,1.3341818,103.710495,kml_10,JURONG WEST,WEST REGION
1867,Opp Assyakirin Mque,1.334659,103.719475,kml_10,JURONG WEST,WEST REGION
1870,Aft Jln Buroh,1.3158542,103.709435,kml_22,BOON LAY,WEST REGION
1871,Bef Jln Buroh,1.316014,103.70992,kml_22,BOON LAY,WEST REGION
1872,Opp Jln Pesawat,1.3184972,103.70997,kml_22,BOON LAY,WEST REGION
1873,Aft Jln Pesawat,1.3191903,103.71055,kml_22,BOON LAY,WEST REGION
1874,Bef Tractor Rd,1.3232051,103.709564,kml_22,BOON LAY,WEST REGION
1875,Opp Tractor Rd,1.3237734,103.7098,kml_22,BOON LAY,WEST REGION
1876,UTOC ENGRG,1.3262405,103.708855,kml_22,BOON LAY,WEST REGION
1877,OPP UTOC ENGRG,1.3269155,103.709015,kml_22,BOON LAY,WEST REGION
1878,Opp Premier Milk Pte Ltd,1.3302904,103.70797,kml_10,JURONG WEST,WEST REGION
1879,Premier Milk Pte Ltd,1.3304247,103.70832,kml_10,JURONG WEST,WEST REGION
1880,Opp Beecham Pte Ltd,1.3351735,103.70896,kml_10,JURONG WEST,WEST REGION
1881,Beecham Pte Ltd,1.3350646,103.70924,kml_10,JURONG WEST,WEST REGION
1882,BEF BOON LAY WAY,1.3388214,103.709564,kml_10,JURONG WEST,WEST REGION
1883,AFT ST KINETICS,1.3386701,103.70996,kml_10,JURONG WEST,WEST REGION
1884,Blk 695,1.3430232,103.70767,kml_10,JURONG WEST,WEST REGION
1885,Opp Blk 695,1.3430912,103.708,kml_10,JURONG WEST,WEST REGION
1886,Blk 680C,1.3452272,103.70618,kml_10,JURONG WEST,WEST REGION
1887,Blk 263,1.3453486,103.70649,kml_10,JURONG WEST,WEST REGION
1888,River Valley High Sch,1.3448507,103.70848,kml_10,JURONG WEST,WEST REGION
1890,River Valley High Sch,1.3448507,103.70848,kml_10,JURONG WEST,WEST REGION
1891,Opp River Valley High Sch,1.3448141,103.70806,kml_10,JURONG WEST,WEST REGION
1892,Blk 191,1.3433897,103.712074,kml_10,JURONG WEST,WEST REGION
1893,Opp Blk 188,1.3439327,103.71033,kml_10,JURONG WEST,WEST REGION
1894,Blk 188,1.3438807,103.71058,kml_10,JURONG WEST,WEST REGION
1895,Blk 176,1.3472031,103.71033,kml_10,JURONG WEST,WEST REGION
1896,Blk 185,1.347402,103.710594,kml_10,JURONG WEST,WEST REGION
1897,Blk 210,1.3476564,103.71241,kml_10,JURONG WEST,WEST REGION
1898,Boon Lay CC,1.3484228,103.71166,kml_10,JURONG WEST,WEST REGION
1899,Boon Lay Shop Ctr,1.3463981,103.71306,kml_10,JURONG WEST,WEST REGION
1900,Blk 206,1.3452483,103.71473,kml_10,JURONG WEST,WEST REGION
1901,Blk 209,1.3455805,103.71491,kml_10,JURONG WEST,WEST REGION
1902,BEF TUKANG INNOVATION DR,1.3273197,103.717995,kml_22,BOON LAY,WEST REGION
1903,Bef Chia Ping Rd,1.327475,103.71809,kml_22,BOON LAY,WEST REGION
1904,AFT TUKANG INNOVATION DR,1.3267314,103.71542,kml_22,BOON LAY,WEST REGION
1905,Hup Leck Heavy Equipment,1.326918,103.7157,kml_22,BOON LAY,WEST REGION
1906,GRUNDFOS,1.3260014,103.71209,kml_22,BOON LAY,WEST REGION
1907,OPP GRUNDFOS,1.3262784,103.712654,kml_22,BOON LAY,WEST REGION
1908,Bef Boon Lay Way,1.3268635,103.71082,kml_22,BOON LAY,WEST REGION
1909,Bef Jln Tukang,1.3265555,103.71102,kml_22,BOON LAY,WEST REGION
1910,Bef Meiji Seika,1.3304278,103.71,kml_10,JURONG WEST,WEST REGION
1911,Opp Meiji Seika,1.3311564,103.709984,kml_10,JURONG WEST,WEST REGION
1912,Bef Chin Bee Rd,1.33312,103.711075,kml_10,JURONG WEST,WEST REGION
1913,Aft Chin Bee Rd,1.332959,103.71129,kml_10,JURONG WEST,WEST REGION
1914,PB Packaging Systems,1.334139,103.714584,kml_10,JURONG WEST,WEST REGION
1915,Opp Grandluxe,1.3340831,103.715096,kml_10,JURONG WEST,WEST REGION
1916,Clariant S'pore,1.3318758,103.71635,kml_10,JURONG WEST,WEST REGION
1917,Opp Kaily Packaging,1.331311,103.716354,kml_10,JURONG WEST,WEST REGION
1918,Aft Fourth Chin Bee Rd,1.3313807,103.719864,kml_10,JURONG WEST,WEST REGION
1919,Automotive Technology,1.3308828,103.718994,kml_22,BOON LAY,WEST REGION
1920,Blk 151,1.326661,103.720985,kml_10,JURONG WEST,WEST REGION
1921,CISCO Recall,1.3266267,103.72064,kml_10,JURONG WEST,WEST REGION
1922,Blk 158,1.3288932,103.72274,kml_10,JURONG WEST,WEST REGION
1923,Opp Blk 158,1.328572,103.7229,kml_10,JURONG WEST,WEST REGION
1924,Opp Jurong Sec Sch,1.3305672,103.72307,kml_10,JURONG WEST,WEST REGION
1925,Jurong Sec Sch,1.3301347,103.72318,kml_10,JURONG WEST,WEST REGION
1926,Blk 65,1.3324335,103.72329,kml_10,JURONG WEST,WEST REGION
1927,Opp Blk 65,1.3324656,103.72346,kml_10,JURONG WEST,WEST REGION
1928,Opp Blk 117,1.334761,103.72243,kml_10,JURONG WEST,WEST REGION
1929,Blk 117,1.3346835,103.72269,kml_10,JURONG WEST,WEST REGION
1930,Blk 357,1.3372703,103.7211,kml_10,JURONG WEST,WEST REGION
1931,Opp Blk 364,1.3377516,103.72102,kml_10,JURONG WEST,WEST REGION
1932,Blk 367,1.3383644,103.71932,kml_10,JURONG WEST,WEST REGION
1933,AFT CORP RD,1.3379351,103.71816,kml_10,JURONG WEST,WEST REGION
1934,Blk 354,1.339215,103.72206,kml_10,JURONG WEST,WEST REGION
1935,Blk 334,1.3395448,103.722755,kml_10,JURONG WEST,WEST REGION
1936,Blk 115/Opp Japanese Gdn,1.3336363,103.72494,kml_10,JURONG WEST,WEST REGION
1937,Japanese Gdn/Opp Blk 115,1.3337886,103.72511,kml_9,JURONG EAST,WEST REGION
1938,Opp Lakeside Apt,1.3363012,103.725006,kml_10,JURONG WEST,WEST REGION
1939,Lakeside Apt,1.3367089,103.72518,kml_9,JURONG EAST,WEST REGION
1940,Opp Chinese Gdn,1.3387301,103.72402,kml_10,JURONG WEST,WEST REGION
1941,Chinese Gdn,1.33896,103.724106,kml_9,JURONG EAST,WEST REGION
1942,Yuan Ching Sec Sch,1.3417656,103.72141,kml_10,JURONG WEST,WEST REGION
1943,Opp Blk 134D,1.3413421,103.72209,kml_9,JURONG EAST,WEST REGION
1944,Opp Blk 200,1.3422873,103.71466,kml_10,JURONG WEST,WEST REGION
1945,Blk 200,1.3424199,103.714424,kml_10,JURONG WEST,WEST REGION
1946,OPP SUMMERDALE,1.3410786,103.71139,kml_10,JURONG WEST,WEST REGION
1947,SUMMERDALE,1.3415499,103.71203,kml_10,JURONG WEST,WEST REGION
1948,Bet Blks 523/525,1.3469988,103.71576,kml_10,JURONG WEST,WEST REGION
1949,Opp Blk 529,1.3477948,103.71507,kml_10,JURONG WEST,WEST REGION
1950,Jurong Sec Sch,1.3308933,103.72481,kml_10,JURONG WEST,WEST REGION
1951,Opp Jurong Sec Sch,1.3303239,103.724915,kml_9,JURONG EAST,WEST REGION
1952,Blk 138B,1.3283134,103.72477,kml_10,JURONG WEST,WEST REGION
1953,Opp Blk 138B,1.3284756,103.72491,kml_9,JURONG EAST,WEST REGION
1954,AFT CORP DR,1.3265799,103.72373,kml_10,JURONG WEST,WEST REGION
1955,Aft Yuan Ching Rd,1.3264357,103.72426,kml_10,JURONG WEST,WEST REGION
1956,Christ Ch,1.333195,103.91599,kml_20,BEDOK,EAST REGION
1957,Blk 608,1.3320698,103.91329,kml_20,BEDOK,EAST REGION
1960,Boon Lay Int,1.3393234,103.70546,kml_10,JURONG WEST,WEST REGION
1961,Boon Lay Int,1.3393234,103.70546,kml_10,JURONG WEST,WEST REGION
1962,Jurong Bird Pk,1.321298,103.707756,kml_22,BOON LAY,WEST REGION
1963,Opp Jurong Bird Pk,1.322024,103.707115,kml_22,BOON LAY,WEST REGION
1964,Givaudan,1.3216825,103.70369,kml_22,BOON LAY,WEST REGION
1965,Opp Givaudan,1.3224497,103.70268,kml_22,BOON LAY,WEST REGION
1966,Bef Pioneer Circus,1.3221681,103.698555,kml_22,BOON LAY,WEST REGION
1967,Markono Holdings,1.3228408,103.698616,kml_22,BOON LAY,WEST REGION
1968,Aft Tg Kling Rd,1.314635,103.69873,kml_22,BOON LAY,WEST REGION
1969,Bef Tg Kling Rd,1.3144664,103.69789,kml_22,BOON LAY,WEST REGION
1970,Opp Buroh St,1.3138691,103.70204,kml_22,BOON LAY,WEST REGION
1971,Aft Buroh St,1.3136061,103.70126,kml_22,BOON LAY,WEST REGION
1972,Ceva Logistics,1.3142762,103.70464,kml_22,BOON LAY,WEST REGION
1973,Opp Ceva Logistics,1.3136544,103.7038,kml_22,BOON LAY,WEST REGION
1974,Bef Jurong Pier Rd,1.3143364,103.706955,kml_22,BOON LAY,WEST REGION
1975,Aft Jurong Pier Rd,1.313944,103.70805,kml_22,BOON LAY,WEST REGION
1976,Opp Natsteel,1.3059956,103.70038,kml_22,BOON LAY,WEST REGION
1977,Natsteel,1.3058928,103.700874,kml_22,BOON LAY,WEST REGION
1978,Aft Jln Samulun,1.3088073,103.696556,kml_22,BOON LAY,WEST REGION
1979,Bef Jln Samulun,1.3087976,103.69689,kml_22,BOON LAY,WEST REGION
1982,Opp Duo Residences,1.3006986,103.858734,kml_45,ROCHOR,CENTRAL REGION
1983,Bef Tuas Sth Ave 4,1.3143584,103.62895,kml_36,TUAS,WEST REGION
1984,Aft Tuas Sth Ave 4,1.3147091,103.628716,kml_36,TUAS,WEST REGION
1985,Galen,1.2865113,103.783455,kml_24,QUEENSTOWN,CENTRAL REGION
1986,BLK 256/OPP LOYANG PT,1.3673377,103.96424,kml_16,PASIR RIS,EAST REGION
1987,Loyang Pt,1.3671898,103.964325,kml_16,PASIR RIS,EAST REGION
1988,Blk 94,1.2883708,103.833496,kml_1,BUKIT MERAH,CENTRAL REGION
1989,Hitachi,1.3209523,103.69627,kml_17,PIONEER,WEST REGION
1990,Opp Hitachi,1.3209524,103.69663,kml_22,BOON LAY,WEST REGION
1991,Aft Lok Yang Way,1.3255166,103.696434,kml_17,PIONEER,WEST REGION
1995,Aft Neythal Rd,1.3276455,103.70261,kml_22,BOON LAY,WEST REGION
1996,Aft Pioneer Rd Nth,1.3279091,103.69785,kml_10,JURONG WEST,WEST REGION
1997,Bef Pioneer Rd Nth,1.3276434,103.698875,kml_22,BOON LAY,WEST REGION
1998,Blk 639,1.3407949,103.69718,kml_10,JURONG WEST,WEST REGION
1999,Blk 624,1.3408197,103.69742,kml_10,JURONG WEST,WEST REGION
2000,Opp Blk 622,1.3401227,103.69939,kml_10,JURONG WEST,WEST REGION
2001,Blk 622,1.3401601,103.698654,kml_10,JURONG WEST,WEST REGION
2002,Blk 665A,1.3407333,103.70266,kml_10,JURONG WEST,WEST REGION
2003,Blk 668D,1.3408914,103.702545,kml_10,JURONG WEST,WEST REGION
2004,Bef Kwong Min Rd,1.3292458,103.70011,kml_10,JURONG WEST,WEST REGION
2005,Aft Soon Lee Rd,1.3284926,103.70375,kml_10,JURONG WEST,WEST REGION
2006,Bef Soon Lee Rd,1.3306884,103.701775,kml_10,JURONG WEST,WEST REGION
2007,Aft Fan Yoong Rd,1.33327,103.703384,kml_10,JURONG WEST,WEST REGION
2008,Bef Enterprise Rd,1.3319814,103.70545,kml_10,JURONG WEST,WEST REGION
2009,Opp Sam Mccoy Engrg,1.3302435,103.70502,kml_10,JURONG WEST,WEST REGION
2010,Jurong Shipyard,1.3048584,103.70318,kml_22,BOON LAY,WEST REGION
2011,Blk 673C,1.3449161,103.701035,kml_10,JURONG WEST,WEST REGION
2012,Blk 734A CP,1.3452054,103.7008,kml_10,JURONG WEST,WEST REGION
2013,Opp Blk 717,1.3427743,103.69804,kml_10,JURONG WEST,WEST REGION
2014,Blk 717,1.3425267,103.69727,kml_10,JURONG WEST,WEST REGION
2015,Blk 641,1.3407781,103.69587,kml_10,JURONG WEST,WEST REGION
2016,Blk 704,1.3403319,103.695114,kml_10,JURONG WEST,WEST REGION
2017,Aft Shipyard Rd,1.3100787,103.69715,kml_22,BOON LAY,WEST REGION
2018,Bef Shipyard Rd,1.3101425,103.69742,kml_22,BOON LAY,WEST REGION
2019,Blk 676B,1.3462679,103.703804,kml_10,JURONG WEST,WEST REGION
2020,Jurong West Sub-Stn,1.346226,103.70286,kml_10,JURONG WEST,WEST REGION
2021,Natl Oxygen Pte Ltd,1.307755,103.69872,kml_22,BOON LAY,WEST REGION
2022,Opp Natl Oxygen Pte Ltd,1.3072575,103.69908,kml_22,BOON LAY,WEST REGION
2023,Opp Four Leaves,1.3330824,103.70742,kml_10,JURONG WEST,WEST REGION
2024,Aft Four Leaves,1.3331126,103.70681,kml_10,JURONG WEST,WEST REGION
2025,Blk 669 CP,1.3426698,103.70363,kml_10,JURONG WEST,WEST REGION
2026,Blk 685B,1.3427621,103.703804,kml_10,JURONG WEST,WEST REGION
2027,Opp Blk 643,1.3381702,103.69561,kml_10,JURONG WEST,WEST REGION
2028,Blk 643,1.3385628,103.69572,kml_10,JURONG WEST,WEST REGION
2029,Opp Blk 653B,1.3359619,103.696205,kml_10,JURONG WEST,WEST REGION
2030,Blk 653B,1.3364906,103.69632,kml_10,JURONG WEST,WEST REGION
2031,Bef Jurong West St 93,1.3350905,103.693146,kml_10,JURONG WEST,WEST REGION
2032,Aft Jurong West St 93,1.3347424,103.6931,kml_10,JURONG WEST,WEST REGION
2033,Carrier Transicold P/L,1.3224052,103.692505,kml_17,PIONEER,WEST REGION
2034,Nippon Paint,1.323021,103.692566,kml_17,PIONEER,WEST REGION
2035,Aft Benoi Sector,1.322436,103.68519,kml_17,PIONEER,WEST REGION
2036,Stamford Tyre,1.3230219,103.686226,kml_17,PIONEER,WEST REGION
2037,Bef Benoi Flyover,1.3223954,103.68099,kml_17,PIONEER,WEST REGION
2038,Aft Benoi Flyover,1.3230311,103.68151,kml_17,PIONEER,WEST REGION
2039,Opp Jurong Camp,1.3333409,103.69056,kml_10,JURONG WEST,WEST REGION
2040,Jurong Camp,1.3341076,103.69061,kml_10,JURONG WEST,WEST REGION
2041,Bef Kian Teck Rd,1.3316897,103.68928,kml_10,JURONG WEST,WEST REGION
2042,Aft Kian Teck Rd,1.3307128,103.68814,kml_10,JURONG WEST,WEST REGION
2043,Aft Kian Teck Rd,1.3295277,103.68652,kml_10,JURONG WEST,WEST REGION
2044,Bef Kian Teck Rd,1.3298995,103.68582,kml_10,JURONG WEST,WEST REGION
2045,Opp SAFTI Military Inst,1.3297706,103.68258,kml_10,JURONG WEST,WEST REGION
2046,SAFTI Military Inst,1.3301791,103.681816,kml_10,JURONG WEST,WEST REGION
2047,Opp S'pore Discovery Ctr,1.3301166,103.67827,kml_17,PIONEER,WEST REGION
2048,S'pore Discovery Ctr,1.3304337,103.67844,kml_10,JURONG WEST,WEST REGION
2049,Bef First Lok Yang Rd,1.3246711,103.69286,kml_17,PIONEER,WEST REGION
2050,Aft Third Lok Yang Rd,1.3246814,103.69068,kml_17,PIONEER,WEST REGION
2051,Aft Fourth Lok Yang Rd,1.3246756,103.68848,kml_17,PIONEER,WEST REGION
2052,Leroy-Somer,1.3246809,103.685585,kml_17,PIONEER,WEST REGION
2053,Bef Lok Yang Way,1.3251717,103.68415,kml_17,PIONEER,WEST REGION
2054,Varco,1.3268304,103.684166,kml_17,PIONEER,WEST REGION
2055,Containers Printers,1.3278823,103.68484,kml_10,JURONG WEST,WEST REGION
2056,Aft Fifth Lok Yang Rd,1.3276638,103.68563,kml_17,PIONEER,WEST REGION
2057,Aft Kian Teck Rd,1.327884,103.6887,kml_10,JURONG WEST,WEST REGION
2058,Bef Kian Teck Rd,1.3276883,103.688675,kml_17,PIONEER,WEST REGION
2059,SKK (S) Pte Ltd,1.327896,103.69119,kml_10,JURONG WEST,WEST REGION
2060,Aft Second Lok Yang Rd,1.3276728,103.69102,kml_17,PIONEER,WEST REGION
2061,Aft Kian Teck Rd,1.327903,103.69449,kml_10,JURONG WEST,WEST REGION
2062,Bef First Lok Yang Rd,1.3276446,103.69398,kml_17,PIONEER,WEST REGION
2063,Opp S'Pore Trspt Pte Ltd,1.3196615,103.683624,kml_17,PIONEER,WEST REGION
2064,S'Pore Trspt Pte Ltd,1.3195126,103.68312,kml_17,PIONEER,WEST REGION
2065,Opp Shimano Pte Ltd,1.3196459,103.68629,kml_17,PIONEER,WEST REGION
2066,Aft Shimano Pte Ltd,1.3195033,103.685776,kml_17,PIONEER,WEST REGION
2067,Mapletree Logistics Hub,1.3179206,103.6892,kml_17,PIONEER,WEST REGION
2068,Tru-Marine,1.3183273,103.68852,kml_17,PIONEER,WEST REGION
2069,Aft Gul Way,1.3089666,103.67178,kml_17,PIONEER,WEST REGION
2070,Opp Gul Way,1.3086876,103.67181,kml_17,PIONEER,WEST REGION
2071,Keppel Logistics,1.309265,103.67492,kml_17,PIONEER,WEST REGION
2072,Opp Keppel Logistics,1.30916,103.67513,kml_17,PIONEER,WEST REGION
2073,Aft Benoi Rd,1.3102543,103.67981,kml_17,PIONEER,WEST REGION
2074,Bef Benoi Rd,1.3099035,103.67949,kml_17,PIONEER,WEST REGION
2075,Aft Shipyard Rd,1.3117224,103.683784,kml_17,PIONEER,WEST REGION
2076,Bef Shipyard Rd,1.3113955,103.68366,kml_22,BOON LAY,WEST REGION
2077,Opp Exxon Mobil,1.3126487,103.685776,kml_17,PIONEER,WEST REGION
2078,Exxon Mobil,1.3124063,103.68578,kml_22,BOON LAY,WEST REGION
2080,Bef Benoi Sector,1.3149288,103.69163,kml_22,BOON LAY,WEST REGION
2081,Aft Pioneer Rd,1.3065062,103.67897,kml_17,PIONEER,WEST REGION
2082,ST Marine,1.3038241,103.679306,kml_17,PIONEER,WEST REGION
2083,Bef Benoi Basin,1.3021206,103.67954,kml_17,PIONEER,WEST REGION
2084,Keppel Shipyard,1.3017864,103.67745,kml_17,PIONEER,WEST REGION
2085,Bef Benoi Lane,1.3040433,103.676186,kml_17,PIONEER,WEST REGION
2086,Opp JP Nelson,1.3068933,103.67584,kml_17,PIONEER,WEST REGION
2087,Aft Pioneer Rd,1.311185,103.678505,kml_17,PIONEER,WEST REGION
2088,Bef Pioneer Rd,1.3107686,103.67872,kml_17,PIONEER,WEST REGION
2089,Aft Gul Ave,1.3161548,103.67875,kml_17,PIONEER,WEST REGION
2090,Opp Gul Ave,1.3150051,103.67889,kml_17,PIONEER,WEST REGION
2091,Opp Keppel Logistics,1.3191077,103.67884,kml_17,PIONEER,WEST REGION
2092,Keppel Logistics,1.3190782,103.67911,kml_17,PIONEER,WEST REGION
2093,Bef Joo Koon Int,1.3259544,103.679085,kml_17,PIONEER,WEST REGION
2094,Opp Joo Koon Int,1.3265431,103.6794,kml_17,PIONEER,WEST REGION
2095,PEC Ltd,1.3075564,103.69377,kml_22,BOON LAY,WEST REGION
2097,Keppel Offshore & Marine,1.3053364,103.69237,kml_22,BOON LAY,WEST REGION
2099,Mobil Marine Ter,1.3035214,103.68934,kml_22,BOON LAY,WEST REGION
2101,Bef Shipyard Cres,1.3038077,103.68615,kml_22,BOON LAY,WEST REGION
2103,Opp EMAS Marine Base,1.3045683,103.68472,kml_22,BOON LAY,WEST REGION
2105,Opp SML Shipyard Ltd,1.3077428,103.684685,kml_22,BOON LAY,WEST REGION
2106,Jurong Shipyard,1.3040267,103.69728,kml_22,BOON LAY,WEST REGION
2107,Tanoto Shipyard,1.3054692,103.696434,kml_22,BOON LAY,WEST REGION
2108,Opp Tanoto Shipyard,1.3050852,103.69684,kml_22,BOON LAY,WEST REGION
2109,Aft Benoi Rd,1.3196634,103.68097,kml_17,PIONEER,WEST REGION
2110,Bef Benoi Rd,1.3195093,103.68066,kml_17,PIONEER,WEST REGION
2111,Molex,1.3279169,103.68175,kml_10,JURONG WEST,WEST REGION
2112,Opp Molex,1.3275969,103.68049,kml_17,PIONEER,WEST REGION
2113,Joo Koon Stn Exit B,1.3279241,103.67781,kml_17,PIONEER,WEST REGION
2114,Joo Koon Stn Exit A,1.3275509,103.678055,kml_17,PIONEER,WEST REGION
2115,M.C. Packaging Pte Ltd,1.3223093,103.67763,kml_17,PIONEER,WEST REGION
2116,Liang Huat Ind Cplx,1.3228872,103.677284,kml_17,PIONEER,WEST REGION
2117,Meritor Heavy Veh Systems,1.3218526,103.67088,kml_17,PIONEER,WEST REGION
2118,Mazak S'pore,1.322471,103.671326,kml_17,PIONEER,WEST REGION
2119,Opp Pasir Laba Camp,1.3303531,103.674995,kml_17,PIONEER,WEST REGION
2120,Pasir Laba Camp,1.3309414,103.67379,kml_53,WESTERN WATER CATCHMENT,WEST REGION
2121,Aft Gul Ave,1.3144557,103.67069,kml_17,PIONEER,WEST REGION
2122,Opp Yeow San Pte Ltd,1.3261418,103.66987,kml_17,PIONEER,WEST REGION
2123,Opp Toyo Ink,1.327336,103.67193,kml_17,PIONEER,WEST REGION
2124,Aft Joo Koon Cres,1.3275402,103.67466,kml_17,PIONEER,WEST REGION
2125,Aft Joo Koon Rd,1.3268422,103.67664,kml_17,PIONEER,WEST REGION
2126,Bef Gul Circle,1.3103863,103.66672,kml_17,PIONEER,WEST REGION
2127,Opp Hong Hock Hardware,1.3094032,103.66477,kml_17,PIONEER,WEST REGION
2128,Tai Sin Electric Cables,1.3111622,103.66194,kml_17,PIONEER,WEST REGION
2129,JB Ind Pte Ltd,1.3130815,103.659935,kml_17,PIONEER,WEST REGION
2130,Aft Gul Lane,1.3152376,103.65987,kml_17,PIONEER,WEST REGION
2131,Precision Products,1.318227,103.662674,kml_17,PIONEER,WEST REGION
2132,Aft Gul St 3,1.3195378,103.66615,kml_17,PIONEER,WEST REGION
2133,Bef Gul St 1,1.3197917,103.66901,kml_17,PIONEER,WEST REGION
2134,Asiatic Agricultural Ind,1.3200141,103.67231,kml_17,PIONEER,WEST REGION
2135,DNV GL Laboratory,1.3202243,103.67563,kml_17,PIONEER,WEST REGION
2136,Sing Huat Hardware,1.31796,103.676605,kml_17,PIONEER,WEST REGION
2137,Cameron Iron Works,1.3148028,103.67674,kml_17,PIONEER,WEST REGION
2138,Opp Keppel T&T,1.3124046,103.67486,kml_17,PIONEER,WEST REGION
2139,Aft Gul Way,1.3121586,103.67165,kml_17,PIONEER,WEST REGION
2140,SNL Logistics Pte Ltd,1.3126099,103.66585,kml_17,PIONEER,WEST REGION
2141,Opp Hong Hang Bldg,1.3085483,103.668686,kml_17,PIONEER,WEST REGION
2142,Hong Hang Bldg,1.3084067,103.66899,kml_17,PIONEER,WEST REGION
2143,Opp Keppel Shipyard,1.2955962,103.67069,kml_17,PIONEER,WEST REGION
2144,Keppel Shipyard,1.2955779,103.67091,kml_17,PIONEER,WEST REGION
2145,Opp S'pore Takada Ind,1.2981176,103.66839,kml_17,PIONEER,WEST REGION
2146,S'pore Takada Ind,1.2982255,103.66853,kml_17,PIONEER,WEST REGION
2147,Dyna-Mac Engrg Svcs,1.3007768,103.666985,kml_17,PIONEER,WEST REGION
2148,Opp Asia Ind Gases,1.3036628,103.665886,kml_17,PIONEER,WEST REGION
2149,Opp GE Keppel Energy Svcs,1.3066843,103.66551,kml_17,PIONEER,WEST REGION
2150,Chem-Solv Technologies,1.2985932,103.664474,kml_17,PIONEER,WEST REGION
2151,Opp Hoe Huat Engrg,1.3003163,103.66356,kml_17,PIONEER,WEST REGION
2152,Gul Camp,1.3024378,103.661736,kml_17,PIONEER,WEST REGION
2153,Bef Pioneer Sector 1,1.3046328,103.65951,kml_17,PIONEER,WEST REGION
2154,Aft Pioneer Sector 2,1.3072661,103.6577,kml_17,PIONEER,WEST REGION
2155,GSK,1.307135,103.660965,kml_17,PIONEER,WEST REGION
2156,Opp Cambridge Ind Trust,1.3059934,103.66379,kml_17,PIONEER,WEST REGION
2157,Bef Nam Leong Co Pte Ltd,1.2972393,103.66626,kml_17,PIONEER,WEST REGION
2158,Aft Joo Koon Way,1.3257439,103.67111,kml_17,PIONEER,WEST REGION
2159,Panasonic Ind Devices,1.325987,103.67439,kml_17,PIONEER,WEST REGION
2160,Bef Tuas Flyover,1.3242489,103.664795,kml_17,PIONEER,WEST REGION
2161,Aft Tuas Flyover,1.3243148,103.664116,kml_36,TUAS,WEST REGION
2162,GUL CIRCLE STN EXIT A,1.3194469,103.66089,kml_17,PIONEER,WEST REGION
2163,GUL CIRCLE STN EXIT B,1.3190719,103.659805,kml_36,TUAS,WEST REGION
2164,Bef Tuas Ave 5,1.3174409,103.65888,kml_17,PIONEER,WEST REGION
2165,Aft Tuas Ave 5,1.3172125,103.658165,kml_36,TUAS,WEST REGION
2166,Utracon Corp,1.3062264,103.65688,kml_17,PIONEER,WEST REGION
2167,Dundee Marine,1.3049202,103.65548,kml_17,PIONEER,WEST REGION
2168,Opp Keppel Shipyard,1.3027565,103.655655,kml_17,PIONEER,WEST REGION
2169,Keppel Shipyard,1.3027364,103.65543,kml_17,PIONEER,WEST REGION
2170,HQ 6 Div,1.300793,103.65748,kml_17,PIONEER,WEST REGION
2173,Seng Heng Engrg,1.3236755,103.66907,kml_17,PIONEER,WEST REGION
2174,Opp ESAB,1.3249614,103.66699,kml_17,PIONEER,WEST REGION
2175,Bef Joo Koon Way,1.3256228,103.669266,kml_17,PIONEER,WEST REGION
2176,Progress Galvanizing,1.31334,103.65486,kml_36,TUAS,WEST REGION
2177,Opp Progress Galvanizing,1.313431,103.654755,kml_36,TUAS,WEST REGION
2178,Bef Marinteknik,1.3108556,103.65254,kml_36,TUAS,WEST REGION
2179,Opp Marinteknik,1.3111397,103.6526,kml_36,TUAS,WEST REGION
2180,Aft Ocean Tanker,1.3079714,103.64978,kml_36,TUAS,WEST REGION
2181,Opp Ocean Tanker,1.3085114,103.650154,kml_36,TUAS,WEST REGION
2182,Bef Benoi Rd,1.3205665,103.678246,kml_17,PIONEER,WEST REGION
2183,Aft Benoi Rd,1.3204101,103.67792,kml_17,PIONEER,WEST REGION
2184,W Atelier,1.31424,103.66551,kml_17,PIONEER,WEST REGION
2185,Metall-Treat Ind,1.3149003,103.66882,kml_17,PIONEER,WEST REGION
2188,Kyocera Chemical,1.327585,103.64529,kml_36,TUAS,WEST REGION
2189,Opp Kyocera Chemical,1.3275118,103.645515,kml_36,TUAS,WEST REGION
2190,Opp Nissin Trspt,1.3295828,103.6432,kml_36,TUAS,WEST REGION
2191,Nissin Trspt,1.3294457,103.64347,kml_36,TUAS,WEST REGION
2192,Aft Tuas Ave 7,1.3344331,103.6452,kml_36,TUAS,WEST REGION
2193,Opto-Pharm,1.3339291,103.64495,kml_36,TUAS,WEST REGION
2194,Opp SMC Mfg,1.3342848,103.647835,kml_36,TUAS,WEST REGION
2195,SMC Mfg,1.3346233,103.64732,kml_36,TUAS,WEST REGION
2196,Aft Tuas Ave 10,1.3323989,103.64982,kml_36,TUAS,WEST REGION
2197,Bef Tuas Ave 10,1.3321264,103.64992,kml_36,TUAS,WEST REGION
2198,Aft Tuas Ave 8,1.3306077,103.651695,kml_36,TUAS,WEST REGION
2199,Aft Tuas Ave 6,1.3299445,103.65227,kml_36,TUAS,WEST REGION
2200,Mercedes-Benz Logistics,1.3291373,103.65325,kml_36,TUAS,WEST REGION
2201,Toyochem Ink,1.3273542,103.655106,kml_36,TUAS,WEST REGION
2202,Opp Galmon S'pore,1.3277495,103.6545,kml_36,TUAS,WEST REGION
2203,Becton Dickinson Med,1.3254665,103.65711,kml_36,TUAS,WEST REGION
2204,Sew-Eurodrive,1.3252914,103.65711,kml_36,TUAS,WEST REGION
2205,MAN Diesel,1.323853,103.65881,kml_36,TUAS,WEST REGION
2206,Soon Heng Glass,1.3238397,103.658615,kml_36,TUAS,WEST REGION
2207,Asiatic Engrg,1.3212998,103.65968,kml_36,TUAS,WEST REGION
2208,Bestofire and Thermal,1.3210948,103.65933,kml_36,TUAS,WEST REGION
2209,Aft Tuas Rd,1.31926,103.65871,kml_36,TUAS,WEST REGION
2210,Bef Tuas Rd,1.319308,103.658806,kml_36,TUAS,WEST REGION
2211,Aft Tuas Ave 2,1.328771,103.65692,kml_36,TUAS,WEST REGION
2212,Raffles Country Club,1.334706,103.65153,kml_36,TUAS,WEST REGION
2213,Crown Beverage Cans S'pore,1.3337127,103.651764,kml_36,TUAS,WEST REGION
2214,Opp Asia-Pacific Brewery,1.3386589,103.6474,kml_36,TUAS,WEST REGION
2215,Asia-Pacific Brewery,1.337405,103.64796,kml_36,TUAS,WEST REGION
2216,Aft Tuas West Rd,1.339855,103.645355,kml_36,TUAS,WEST REGION
2217,Bef Tuas West Dr,1.3441882,103.64071,kml_36,TUAS,WEST REGION
2218,Tuas Checkpt,1.3477715,103.63747,kml_36,TUAS,WEST REGION
2219,YCH Distripark,1.3176502,103.65645,kml_36,TUAS,WEST REGION
2220,Mapletree Logistics,1.3177913,103.65646,kml_36,TUAS,WEST REGION
2221,Chugoku Marine Paints,1.3201978,103.65382,kml_36,TUAS,WEST REGION
2222,Asia Steel Welded Mesh,1.3201818,103.65397,kml_36,TUAS,WEST REGION
2223,ROCKWOOL,1.321943,103.651985,kml_36,TUAS,WEST REGION
2224,Times Printers,1.3215922,103.65248,kml_36,TUAS,WEST REGION
2225,Hart Engrg Pte Ltd,1.3239697,103.65303,kml_36,TUAS,WEST REGION
2226,Opp Hart Engrg Pte Ltd,1.32365,103.65292,kml_36,TUAS,WEST REGION
2227,Yan San Metals Pte Ltd,1.3249584,103.65112,kml_36,TUAS,WEST REGION
2228,Jas Metal Coatings,1.3251358,103.651474,kml_36,TUAS,WEST REGION
2229,Aft Tuas Ave 4,1.323878,103.64918,kml_36,TUAS,WEST REGION
2230,Aft Tuas Ave 6,1.3242164,103.649,kml_36,TUAS,WEST REGION
2231,WYN2000 Logistics Ctr,1.3255631,103.64739,kml_36,TUAS,WEST REGION
2232,Aft Tuas Ave 8,1.3259562,103.64721,kml_36,TUAS,WEST REGION
2233,Bef Pioneer Rd,1.32897,103.63705,kml_36,TUAS,WEST REGION
2234,Aft Pioneer Rd,1.3292387,103.63795,kml_36,TUAS,WEST REGION
2235,BEF TUAS TER,1.3438706,103.638306,kml_36,TUAS,WEST REGION
2236,OPP TUAS LINK STN,1.3414665,103.63745,kml_36,TUAS,WEST REGION
2237,TUAS LINK STN,1.340558,103.63696,kml_36,TUAS,WEST REGION
2238,Super Continental,1.3389765,103.63659,kml_36,TUAS,WEST REGION
2239,Opp Super Continental,1.3391253,103.63643,kml_36,TUAS,WEST REGION
2240,Bef Pioneer Rd,1.3348321,103.635124,kml_36,TUAS,WEST REGION
2241,Aft Pioneer Rd,1.3355925,103.63489,kml_36,TUAS,WEST REGION
2242,Aft Tuas West St,1.3322833,103.6341,kml_36,TUAS,WEST REGION
2243,Opp Tuas West St,1.3328,103.634125,kml_36,TUAS,WEST REGION
2244,Aft Tuas West Ave,1.3294482,103.63292,kml_36,TUAS,WEST REGION
2245,Bef Tuas West Ave,1.3292947,103.632645,kml_36,TUAS,WEST REGION
2246,Opp S'pore Epson Ind,1.3355235,103.64184,kml_36,TUAS,WEST REGION
2247,S'pore Epson Ind,1.335528,103.64163,kml_36,TUAS,WEST REGION
2248,Opp Super Continental,1.3390104,103.63817,kml_36,TUAS,WEST REGION
2249,Super Continental,1.3387498,103.63824,kml_36,TUAS,WEST REGION
2250,Kee Wee Hup Kee,1.3337905,103.64364,kml_36,TUAS,WEST REGION
2251,Opp Kee Wee Hup Kee,1.3335593,103.64365,kml_36,TUAS,WEST REGION
2252,MICHELMAN,1.329815,103.64081,kml_36,TUAS,WEST REGION
2253,OPP MICHELMAN,1.3298146,103.641,kml_36,TUAS,WEST REGION
2254,Bef Tuas Ave 11,1.3192296,103.648766,kml_36,TUAS,WEST REGION
2255,Bef Tuas Ave 13,1.3172613,103.646935,kml_36,TUAS,WEST REGION
2256,Hiap Seng Engrg Ltd,1.3154826,103.64525,kml_36,TUAS,WEST REGION
2257,Damen Shipyard,1.3148657,103.64275,kml_36,TUAS,WEST REGION
2258,PAXOCEAN,1.3167278,103.64084,kml_36,TUAS,WEST REGION
2259,Aft Tuas Ave 16,1.3185028,103.63898,kml_36,TUAS,WEST REGION
2260,Bef Tuas Loop,1.3206061,103.63676,kml_36,TUAS,WEST REGION
2261,Bef Tuas Ave 20,1.3221517,103.6351,kml_36,TUAS,WEST REGION
2262,Bef Tuas Ave 13,1.3246425,103.635994,kml_36,TUAS,WEST REGION
2263,Bef Tuas Ave 11,1.3272774,103.63849,kml_36,TUAS,WEST REGION
2264,Tru-Marine,1.314643,103.65426,kml_36,TUAS,WEST REGION
2266,Bef Tuas Amenity Ctr,1.3173684,103.65137,kml_36,TUAS,WEST REGION
2268,Aft Tuas Cres,1.3190228,103.6497,kml_36,TUAS,WEST REGION
2269,Smarty,1.3266863,103.64026,kml_36,TUAS,WEST REGION
2270,Opp Hempel,1.32453,103.642525,kml_36,TUAS,WEST REGION
2271,3NC S'pore,1.3223833,103.6448,kml_36,TUAS,WEST REGION
2272,Richee Engrg,1.3201325,103.64712,kml_36,TUAS,WEST REGION
2273,Opp MSD,1.3269529,103.63193,kml_36,TUAS,WEST REGION
2274,MSD,1.32692,103.63175,kml_36,TUAS,WEST REGION
2275,Aft Tuas Sth Ave 4,1.3113343,103.62784,kml_36,TUAS,WEST REGION
2276,Aft Tuas Sth St 2,1.3085457,103.62682,kml_36,TUAS,WEST REGION
2277,Bef Tuas Sth Ave 6,1.3051095,103.625565,kml_36,TUAS,WEST REGION
2279,Aft Tuas Sth Ave 6,1.3022883,103.62978,kml_36,TUAS,WEST REGION
2280,Bef Tuas Sth St 2,1.3060396,103.63117,kml_36,TUAS,WEST REGION
2281,RS Components,1.3086996,103.63213,kml_36,TUAS,WEST REGION
2282,Tuas Technology Pk,1.3119397,103.62994,kml_36,TUAS,WEST REGION
2283,Opp Blk 271 CP,1.34911,103.70389,kml_10,JURONG WEST,WEST REGION
2284,Blk 271 CP,1.3502369,103.70361,kml_10,JURONG WEST,WEST REGION
2285,Opp Westwood Sec Sch,1.3525947,103.70112,kml_10,JURONG WEST,WEST REGION
2286,Westwood Sec Sch,1.3530947,103.70082,kml_10,JURONG WEST,WEST REGION
2287,Bef Nanyang Ave,1.3568231,103.69521,kml_53,WESTERN WATER CATCHMENT,WEST REGION
2288,Opp Nanyang Ave,1.3573322,103.69516,kml_53,WESTERN WATER CATCHMENT,WEST REGION
2289,Blk 932,1.34194,103.68853,kml_10,JURONG WEST,WEST REGION
2290,Blk 920,1.3396754,103.6878,kml_10,JURONG WEST,WEST REGION
2291,Blk 924,1.3403378,103.69005,kml_10,JURONG WEST,WEST REGION
2292,Bef Jln Bahar,1.3569311,103.694244,kml_53,WESTERN WATER CATCHMENT,WEST REGION
2293,Bef Lor Danau,1.3560456,103.69168,kml_53,WESTERN WATER CATCHMENT,WEST REGION
2294,Aft Lor Danau,1.3561841,103.69178,kml_53,WESTERN WATER CATCHMENT,WEST REGION
2295,PUB Sub-Stn,1.3558758,103.68903,kml_53,WESTERN WATER CATCHMENT,WEST REGION
2296,Opp PUB Sub-Stn,1.3560721,103.68904,kml_53,WESTERN WATER CATCHMENT,WEST REGION
2298,Hall 11,1.3543422,103.68686,kml_53,WESTERN WATER CATCHMENT,WEST REGION
2300,Hall 8,1.3515071,103.68569,kml_53,WESTERN WATER CATCHMENT,WEST REGION
2301,Lee Wee Nam Lib,1.3479314,103.680504,kml_53,WESTERN WATER CATCHMENT,WEST REGION
2302,Sch Of CEE,1.3462315,103.67852,kml_53,WESTERN WATER CATCHMENT,WEST REGION
2303,Sch Of Comm And Info,1.3420798,103.67922,kml_53,WESTERN WATER CATCHMENT,WEST REGION
2304,Hall 7,1.3399873,103.68089,kml_53,WESTERN WATER CATCHMENT,WEST REGION
2305,Yunnan Gdn,1.3416227,103.684204,kml_53,WESTERN WATER CATCHMENT,WEST REGION
2306,Hall 4,1.3433201,103.68632,kml_53,WESTERN WATER CATCHMENT,WEST REGION
2307,Blk 962,1.3419999,103.69132,kml_10,JURONG WEST,WEST REGION
2308,Blk 953,1.3421024,103.69119,kml_10,JURONG WEST,WEST REGION
2309,Hall 1,1.345655,103.687805,kml_53,WESTERN WATER CATCHMENT,WEST REGION
2310,Opp Hall 6,1.3477226,103.6865,kml_53,WESTERN WATER CATCHMENT,WEST REGION
2311,Blk 978,1.3404528,103.6944,kml_10,JURONG WEST,WEST REGION
2312,Blk 705,1.3410704,103.69427,kml_10,JURONG WEST,WEST REGION
2313,Hall 2,1.3490222,103.685394,kml_53,WESTERN WATER CATCHMENT,WEST REGION
2314,West Grove Pr Sch,1.345373,103.69941,kml_10,JURONG WEST,WEST REGION
2315,Blk 729,1.346637,103.697784,kml_10,JURONG WEST,WEST REGION
2316,Blk 745,1.3468081,103.697815,kml_10,JURONG WEST,WEST REGION
2317,Blk 715,1.344232,103.69613,kml_10,JURONG WEST,WEST REGION
2318,Blk 817,1.3444144,103.696014,kml_10,JURONG WEST,WEST REGION
2319,Blk 710,1.3429449,103.69452,kml_10,JURONG WEST,WEST REGION
2320,Blk 834,1.3428538,103.69411,kml_10,JURONG WEST,WEST REGION
2321,Opp Blk 755,1.3475138,103.701,kml_10,JURONG WEST,WEST REGION
2322,Blk 755,1.3480505,103.700874,kml_10,JURONG WEST,WEST REGION
2323,Blk 749,1.3481479,103.69864,kml_10,JURONG WEST,WEST REGION
2324,Gek Poh Shop Ctr,1.3484519,103.698105,kml_10,JURONG WEST,WEST REGION
2325,Blk 857,1.348427,103.69631,kml_10,JURONG WEST,WEST REGION
2326,Bet Blks 859/860,1.3486646,103.6964,kml_10,JURONG WEST,WEST REGION
2327,Opp Blk 821,1.347366,103.69414,kml_10,JURONG WEST,WEST REGION
2328,Blk 821,1.34719,103.69417,kml_10,JURONG WEST,WEST REGION
2329,Blk 844A CP,1.3459083,103.69273,kml_10,JURONG WEST,WEST REGION
2330,Blk 827,1.3457547,103.69282,kml_10,JURONG WEST,WEST REGION
2335,BEF TOH TUCK AVE,1.3242581,103.75915,kml_7,CLEMENTI,WEST REGION
2336,Aft Toh Tuck Ave,1.3249272,103.75894,kml_7,CLEMENTI,WEST REGION
2337,OPP 8 @TRADEHUB 21,1.326158,103.75545,kml_7,CLEMENTI,WEST REGION
2338,8 @ TRADEHUB 21,1.32689,103.754364,kml_7,CLEMENTI,WEST REGION
2339,Bef The Synergy,1.327901,103.751015,kml_7,CLEMENTI,WEST REGION
2340,Aft Boon Lay Sub Stn,1.328075,103.75141,kml_7,CLEMENTI,WEST REGION
2341,The Synergy,1.3300835,103.74828,kml_9,JURONG EAST,WEST REGION
2342,Opp The Synergy,1.3306992,103.7481,kml_9,JURONG EAST,WEST REGION
2343,Opp Ng Teng Fong Gen Hosp,1.33229,103.74574,kml_9,JURONG EAST,WEST REGION
2344,Ng Teng Fong General Hosp,1.3326064,103.745804,kml_9,JURONG EAST,WEST REGION
2345,J Gateway,1.335964,103.742546,kml_9,JURONG EAST,WEST REGION
2346,Blk 203,1.3364424,103.74255,kml_9,JURONG EAST,WEST REGION
2347,Blk 105,1.3376503,103.739044,kml_9,JURONG EAST,WEST REGION
2348,Blk 210,1.338399,103.7386,kml_9,JURONG EAST,WEST REGION
2349,Blk 112,1.3395083,103.73665,kml_9,JURONG EAST,WEST REGION
2350,Bef Yuhua CC,1.3401636,103.73634,kml_9,JURONG EAST,WEST REGION
2351,Lakeside Stn,1.344258,103.72012,kml_10,JURONG WEST,WEST REGION
2352,Opp Lakeside Stn,1.344324,103.71927,kml_10,JURONG WEST,WEST REGION
2353,Opp SMRT Ulu Pandan Depot,1.3331244,103.759056,kml_7,CLEMENTI,WEST REGION
2354,SMRT Ulu Pandan Depot,1.3332734,103.75933,kml_7,CLEMENTI,WEST REGION
2367,Bef Toh Tuck Link,1.3299664,103.7582,kml_7,CLEMENTI,WEST REGION
2368,Aft Toh Tuck Link,1.3299212,103.75851,kml_7,CLEMENTI,WEST REGION
2369,Opp Intl Business Pk,1.327618,103.74494,kml_9,JURONG EAST,WEST REGION
2370,German Ctr,1.3253667,103.74593,kml_9,JURONG EAST,WEST REGION
2371,Jurong Town Hall,1.329862,103.742485,kml_9,JURONG EAST,WEST REGION
2372,Opp Jurong Town Hall,1.3298044,103.74307,kml_9,JURONG EAST,WEST REGION
2373,Opp Jurong East Lib,1.3317586,103.73958,kml_9,JURONG EAST,WEST REGION
2374,Jurong East Lib,1.332605,103.739044,kml_9,JURONG EAST,WEST REGION
2375,S'pore Science Ctr,1.3338281,103.73699,kml_9,JURONG EAST,WEST REGION
2376,Opp S'pore Science Ctr,1.3341547,103.73699,kml_9,JURONG EAST,WEST REGION
2377,Aft S'pore Science Ctr,1.3361424,103.7349,kml_9,JURONG EAST,WEST REGION
2378,Blk 118,1.3365325,103.73499,kml_9,JURONG EAST,WEST REGION
2379,Opp Blk 114,1.3389926,103.7339,kml_9,JURONG EAST,WEST REGION
2380,Blk 114,1.3394829,103.73424,kml_9,JURONG EAST,WEST REGION
2381,Opp Blk 227,1.3420603,103.735374,kml_9,JURONG EAST,WEST REGION
2382,Blk 228,1.3423897,103.73599,kml_9,JURONG EAST,WEST REGION
